{
  "type": "FeatureCollection",
  "features": [
    {
      "type": "Feature",
      "geometry": {
        "type": "Point",
        "coordinates": [
          -58.4622317,
          -34.5571626
        ]
      },
      "properties": {
        "Nombre": "Abinadab_Uñas",
        "Rubro": [
          "Uñas"
        ],
        "Foto": "https://i.imgur.com/7792qOy.jpg",
        "URL Store": "https://agenddo.com/abinadab-unas",
        "Barrio": "Belgrano",
        "Fecha": "26 de nov"
      }
    },
    {
      "type": "Feature",
      "geometry": {
        "type": "Point",
        "coordinates": [
          -58.4358278,
          -34.6006292
        ]
      },
      "properties": {
        "Nombre": "Academia Bayres Estética",
        "Rubro": [
          "Estética Corporal"
        ],
        "Foto": "https://i.imgur.com/sBtm15d.jpg",
        "URL Store": "https://agenddo.com/academia-bayres-estetica",
        "Barrio": "Villa Crespo",
        "Fecha": "26 de nov"
      }
    },
    {
      "type": "Feature",
      "geometry": {
        "type": "Point",
        "coordinates": [
          -58.4393878,
          -34.5996988
        ]
      },
      "properties": {
        "Nombre": "Ambar Momento Femenino",
        "Rubro": [
          "Uñas",
          "Depilación"
        ],
        "Foto": "https://i.imgur.com/29noCF7.jpg",
        "URL Store": "https://agenddo.com/ambar-momento-femenino",
        "Barrio": "Villa Crespo",
        "Fecha": "26 de nov"
      }
    },
    {
      "type": "Feature",
      "geometry": {
        "type": "Point",
        "coordinates": [
          -58.4617731,
          -34.576046
        ]
      },
      "properties": {
        "Nombre": "Ambar Spa - Belgrano",
        "Rubro": [
          "Uñas",
          "Depilación",
          "SkinCare",
          "Estética Corporal",
          "EyeBeauty"
        ],
        "Foto": "https://i.imgur.com/DFtMJsB.jpg",
        "URL Store": "https://agenddo.com/ambar-spa-belgrano",
        "Barrio": "Belgrano",
        "Fecha": "26 de nov"
      }
    },
    {
      "type": "Feature",
      "geometry": {
        "type": "Point",
        "coordinates": [
          -58.4366211,
          -34.5862006
        ]
      },
      "properties": {
        "Nombre": "Ambar Spa - Palermo",
        "Rubro": [
          "Uñas",
          "Depilación",
          "SkinCare",
          "Estética Corporal",
          "EyeBeauty"
        ],
        "Foto": "https://i.imgur.com/DFtMJsB.jpg",
        "URL Store": "https://agenddo.com/ambar-spa-palermo",
        "Barrio": "Palermo",
        "Fecha": "26 de nov"
      }
    },
    {
      "type": "Feature",
      "geometry": {
        "type": "Point",
        "coordinates": [
          -58.4468662,
          -34.5708852
        ]
      },
      "properties": {
        "Nombre": "Andrea Beauty Studio Spa de uñas, cejas y pestañas",
        "Rubro": [
          "Uñas",
          "EyeBeauty"
        ],
        "Foto": "https://i.imgur.com/fKDklwe.jpg",
        "URL Store": "https://agenddo.com/andrea-beauty-studio-spa-de-unas-cejas-y-pestanas",
        "Barrio": "Colegiales",
        "Fecha": "26 de nov"
      }
    },
    {
      "type": "Feature",
      "geometry": {
        "type": "Point",
        "coordinates": [
          -58.4500642,
          -34.5677757
        ]
      },
      "properties": {
        "Nombre": "Balboa",
        "Rubro": [
          "Peluquería",
          "Barbería"
        ],
        "Foto": "https://i.imgur.com/RO6RwJ6.jpg",
        "URL Store": "https://agenddo.com/balboa",
        "Barrio": "Colegiales",
        "Fecha": "26 de nov"
      }
    },
    {
      "type": "Feature",
      "geometry": {
        "type": "Point",
        "coordinates": [
          -58.4465178,
          -34.5586595
        ]
      },
      "properties": {
        "Nombre": "Bodylife by Pampita",
        "Rubro": [
          "Medicina Estética"
        ],
        "Foto": "https://i.imgur.com/QJ8oyHl.jpg",
        "URL Store": "https://agenddo.com/bodylife-by-pampita",
        "Barrio": "Belgrano",
        "Fecha": "26 de nov"
      }
    },
    {
      "type": "Feature",
      "geometry": {
        "type": "Point",
        "coordinates": [
          -58.4607027,
          -34.557933
        ]
      },
      "properties": {
        "Nombre": "ByH Estética",
        "Rubro": [
          "Uñas",
          "Masajes",
          "SkinCare",
          "Estética Corporal"
        ],
        "Foto": "https://i.imgur.com/2S8KI74.jpg",
        "URL Store": "https://agenddo.com/byh-estetica",
        "Barrio": "Belgrano",
        "Fecha": "26 de nov"
      }
    },
    {
      "type": "Feature",
      "geometry": {
        "type": "Point",
        "coordinates": [
          -58.3815591,
          -34.6036844
        ]
      },
      "properties": {
        "Nombre": "Cerini - Alcorta",
        "Rubro": [
          "Peluquería",
          "Uñas",
          "MakeUp",
          "Depilación",
          "EyeBeauty",
          "Estética Corporal"
        ],
        "Foto": "https://i.imgur.com/cxNzbhR.jpg",
        "URL Store": "https://agenddo.com/cerini-alcorta",
        "Barrio": "Palermo",
        "Fecha": "26 de nov"
      }
    },
    {
      "type": "Feature",
      "geometry": {
        "type": "Point",
        "coordinates": [
          -58.4104412,
          -34.5880019
        ]
      },
      "properties": {
        "Nombre": "Cerini - Alto Palermo",
        "Rubro": [
          "Peluquería",
          "Uñas",
          "MakeUp",
          "Depilación"
        ],
        "Foto": "https://i.imgur.com/cxNzbhR.jpg",
        "URL Store": "https://agenddo.com/cerini-alto-palermo",
        "Barrio": "Palermo",
        "Fecha": "26 de nov"
      }
    },
    {
      "type": "Feature",
      "geometry": {
        "type": "Point",
        "coordinates": [
          -58.3878626,
          -34.5969608
        ]
      },
      "properties": {
        "Nombre": "Cerini - Barrio Norte",
        "Rubro": [
          "Peluquería",
          "Uñas",
          "MakeUp",
          "Depilación",
          "Estética Corporal"
        ],
        "Foto": "https://i.imgur.com/cxNzbhR.jpg",
        "URL Store": "https://agenddo.com/cerini-barrio-norte",
        "Barrio": "Recoleta",
        "Fecha": "26 de nov"
      }
    },
    {
      "type": "Feature",
      "geometry": {
        "type": "Point",
        "coordinates": [
          -58.4535856,
          -34.5628647
        ]
      },
      "properties": {
        "Nombre": "Cerini - Belgrano",
        "Rubro": [
          "Peluquería",
          "Uñas",
          "MakeUp",
          "Depilación"
        ],
        "Foto": "https://i.imgur.com/cxNzbhR.jpg",
        "URL Store": "https://agenddo.com/cerini-belgrano",
        "Barrio": "Belgrano",
        "Fecha": "26 de nov"
      }
    },
    {
      "type": "Feature",
      "geometry": {
        "type": "Point",
        "coordinates": [
          -58.4878536,
          -34.5464842
        ]
      },
      "properties": {
        "Nombre": "Cerini - Dot",
        "Rubro": [
          "Peluquería",
          "Uñas",
          "MakeUp",
          "Depilación"
        ],
        "Foto": "https://i.imgur.com/cxNzbhR.jpg",
        "URL Store": "https://agenddo.com/cerini-dot",
        "Barrio": "Saavedra",
        "Fecha": "26 de nov"
      }
    },
    {
      "type": "Feature",
      "geometry": {
        "type": "Point",
        "coordinates": [
          -58.4965717,
          -34.4873188
        ]
      },
      "properties": {
        "Nombre": "Cerini - Martínez",
        "Rubro": [
          "Peluquería",
          "Uñas",
          "MakeUp",
          "Depilación"
        ],
        "Foto": "https://i.imgur.com/cxNzbhR.jpg",
        "URL Store": "https://agenddo.com/cerini-Martínez",
        "Barrio": "Martínez",
        "Fecha": "26 de nov"
      }
    },
    {
      "type": "Feature",
      "geometry": {
        "type": "Point",
        "coordinates": [
          -58.3840901,
          -34.5891244
        ]
      },
      "properties": {
        "Nombre": "Cerini - Patio Bullrich",
        "Rubro": [
          "Peluquería",
          "Uñas",
          "MakeUp",
          "Depilación"
        ],
        "Foto": "https://i.imgur.com/cxNzbhR.jpg",
        "URL Store": "https://agenddo.com/cerini-patio-bullrich",
        "Barrio": "Retiro",
        "Fecha": "26 de nov"
      }
    },
    {
      "type": "Feature",
      "geometry": {
        "type": "Point",
        "coordinates": [
          -58.3815591,
          -34.6036844
        ]
      },
      "properties": {
        "Nombre": "Cheek To Cheek",
        "Rubro": [
          "Peluquería",
          "Estética Corporal"
        ],
        "Foto": "https://i.imgur.com/PXlASxz.jpg",
        "URL Store": "https://agenddo.com/cheek-to-cheek",
        "Barrio": "Villa Crespo",
        "Fecha": "26 de nov"
      }
    },
    {
      "type": "Feature",
      "geometry": {
        "type": "Point",
        "coordinates": [
          -58.4102608,
          -34.5925829
        ]
      },
      "properties": {
        "Nombre": "Coco Buenos Aires - Barrio Norte",
        "Rubro": [
          "Uñas",
          "EyeBeauty",
          "Bronceado"
        ],
        "Foto": "https://i.imgur.com/d9ra2hI.jpg",
        "URL Store": "https://agenddo.com/coco-buenos-aires-barrio-norte",
        "Barrio": "Recoleta",
        "Fecha": "26 de nov"
      }
    },
    {
      "type": "Feature",
      "geometry": {
        "type": "Point",
        "coordinates": [
          -58.4597567,
          -34.5623167
        ]
      },
      "properties": {
        "Nombre": "Coco Buenos Aires - Belgrano",
        "Rubro": [
          "Uñas",
          "EyeBeauty"
        ],
        "Foto": "https://i.imgur.com/d9ra2hI.jpg",
        "URL Store": "https://agenddo.com/coco-buenos-aires-belgrano",
        "Barrio": "Belgrano",
        "Fecha": "26 de nov"
      }
    },
    {
      "type": "Feature",
      "geometry": {
        "type": "Point",
        "coordinates": [
          -58.441701,
          -34.623173
        ]
      },
      "properties": {
        "Nombre": "Coco Buenos Aires - Caballito",
        "Rubro": [
          "Uñas",
          "EyeBeauty",
          "Uñas"
        ],
        "Foto": "https://i.imgur.com/d9ra2hI.jpg",
        "URL Store": "https://agenddo.com/coco-buenos-aires-caballito",
        "Barrio": "Caballito",
        "Fecha": "26 de nov"
      }
    },
    {
      "type": "Feature",
      "geometry": {
        "type": "Point",
        "coordinates": [
          -58.4363825,
          -34.5675936
        ]
      },
      "properties": {
        "Nombre": "Coco Buenos Aires - Cañitas",
        "Rubro": [
          "Uñas",
          "EyeBeauty"
        ],
        "Foto": "https://i.imgur.com/d9ra2hI.jpg",
        "URL Store": "https://agenddo.com/coco-buenos-aires-canitas",
        "Barrio": "Palermo",
        "Fecha": "26 de nov"
      }
    },
    {
      "type": "Feature",
      "geometry": {
        "type": "Point",
        "coordinates": [
          -58.409288,
          -34.5812699
        ]
      },
      "properties": {
        "Nombre": "Coco Buenos Aires - Palermo",
        "Rubro": [
          "Uñas",
          "EyeBeauty"
        ],
        "Foto": "https://i.imgur.com/d9ra2hI.jpg",
        "URL Store": "https://agenddo.com/coco-buenos-aires-palermo",
        "Barrio": "Palermo",
        "Fecha": "26 de nov"
      }
    },
    {
      "type": "Feature",
      "geometry": {
        "type": "Point",
        "coordinates": [
          -58.618922,
          -34.4074064
        ]
      },
      "properties": {
        "Nombre": "Coco Buenos Aires (Peluquería Vanity Projects) - Nordelta",
        "Rubro": [
          "Peluquería",
          "Uñas",
          "EyeBeauty",
          "Uñas"
        ],
        "Foto": "https://i.imgur.com/d9ra2hI.jpg",
        "URL Store": "https://agenddo.com/coco-buenos-aires-(peluqueria-vanity-projects)-nordelta",
        "Barrio": "Nordelta",
        "Fecha": "26 de nov"
      }
    },
    {
      "type": "Feature",
      "geometry": {
        "type": "Point",
        "coordinates": [
          -58.4365757,
          -34.5794901
        ]
      },
      "properties": {
        "Nombre": "Cristian Rey",
        "Rubro": [
          "Peluquería"
        ],
        "Foto": "https://i.imgur.com/mTMUaHE.jpg",
        "URL Store": "https://agenddo.com/cristian-rey",
        "Barrio": "Palermo",
        "Fecha": "26 de nov"
      }
    },
    {
      "type": "Feature",
      "geometry": {
        "type": "Point",
        "coordinates": [
          -58.3929064,
          -34.7428121
        ]
      },
      "properties": {
        "Nombre": "d-uñas - Banfield",
        "Rubro": [
          "Uñas",
          "EyeBeauty",
          "SkinCare"
        ],
        "Foto": "https://i.imgur.com/466CgJl.jpg",
        "URL Store": "https://agenddo.com/d-unas-banfield",
        "Barrio": "Banfield",
        "Fecha": "26 de nov"
      }
    },
    {
      "type": "Feature",
      "geometry": {
        "type": "Point",
        "coordinates": [
          -58.4436416,
          -34.6234374
        ]
      },
      "properties": {
        "Nombre": "d-uñas - Caballito",
        "Rubro": [
          "Uñas",
          "EyeBeauty",
          "Depilación"
        ],
        "Foto": "https://i.imgur.com/466CgJl.jpg",
        "URL Store": "https://agenddo.com/d-unas-caballito",
        "Barrio": "Caballito",
        "Fecha": "26 de nov"
      }
    },
    {
      "type": "Feature",
      "geometry": {
        "type": "Point",
        "coordinates": [
          -58.6452437,
          -34.6554584
        ]
      },
      "properties": {
        "Nombre": "d-uñas - Castelar",
        "Rubro": [
          "Uñas",
          "Estética Corporal"
        ],
        "Foto": "https://i.imgur.com/466CgJl.jpg",
        "URL Store": "https://agenddo.com/d-unas-castelar",
        "Barrio": "Castelar",
        "Fecha": "26 de nov"
      }
    },
    {
      "type": "Feature",
      "geometry": {
        "type": "Point",
        "coordinates": [
          -58.9165089,
          -34.4520117
        ]
      },
      "properties": {
        "Nombre": "d-uñas - Champagnat",
        "Rubro": [
          "Uñas",
          "EyeBeauty"
        ],
        "Foto": "https://i.imgur.com/466CgJl.jpg",
        "URL Store": "https://agenddo.com/d-unas-champagnat",
        "Barrio": "Pilar",
        "Fecha": "26 de nov"
      }
    },
    {
      "type": "Feature",
      "geometry": {
        "type": "Point",
        "coordinates": [
          -58.4555072,
          -34.5654085
        ]
      },
      "properties": {
        "Nombre": "d-uñas - Ciudad de La Paz",
        "Rubro": [
          "Uñas",
          "EyeBeauty",
          "Depilación",
          "SkinCare"
        ],
        "Foto": "https://i.imgur.com/466CgJl.jpg",
        "URL Store": "https://agenddo.com/d-unas-ciudad-de-la-paz",
        "Barrio": "Belgrano",
        "Fecha": "26 de nov"
      }
    },
    {
      "type": "Feature",
      "geometry": {
        "type": "Point",
        "coordinates": [
          -58.4654439,
          -34.6302014
        ]
      },
      "properties": {
        "Nombre": "d-uñas - Flores",
        "Rubro": [
          "Uñas",
          "EyeBeauty"
        ],
        "Foto": "https://i.imgur.com/466CgJl.jpg",
        "URL Store": "https://agenddo.com/d-unas-flores",
        "Barrio": "Flores",
        "Fecha": "26 de nov"
      }
    },
    {
      "type": "Feature",
      "geometry": {
        "type": "Point",
        "coordinates": [
          -58.4668095,
          -34.5636735
        ]
      },
      "properties": {
        "Nombre": "d-uñas - Freire",
        "Rubro": [
          "Uñas",
          "Depilación"
        ],
        "Foto": "https://i.imgur.com/466CgJl.jpg",
        "URL Store": "https://agenddo.com/d-unas-freire",
        "Barrio": "Belgrano",
        "Fecha": "26 de nov"
      }
    },
    {
      "type": "Feature",
      "geometry": {
        "type": "Point",
        "coordinates": [
          -58.4157334,
          -34.5876024
        ]
      },
      "properties": {
        "Nombre": "d-uñas - Julián Alvarez",
        "Rubro": [
          "Uñas",
          "EyeBeauty",
          "Depilación",
          "SkinCare",
          "Estética Corporal"
        ],
        "Foto": "https://i.imgur.com/466CgJl.jpg",
        "URL Store": "https://agenddo.com/d-unas-julian-alvarez",
        "Barrio": "Palermo",
        "Fecha": "26 de nov"
      }
    },
    {
      "type": "Feature",
      "geometry": {
        "type": "Point",
        "coordinates": [
          -58.4522668,
          -34.5595947
        ]
      },
      "properties": {
        "Nombre": "d-uñas - Juramento",
        "Rubro": [
          "Uñas",
          "EyeBeauty"
        ],
        "Foto": "https://i.imgur.com/466CgJl.jpg",
        "URL Store": "https://agenddo.com/d-unas-juramento",
        "Barrio": "Belgrano",
        "Fecha": "26 de nov"
      }
    },
    {
      "type": "Feature",
      "geometry": {
        "type": "Point",
        "coordinates": [
          -58.4346495,
          -34.5655187
        ]
      },
      "properties": {
        "Nombre": "d-uñas - Las Cañitas",
        "Rubro": [
          "Uñas",
          "EyeBeauty",
          "Depilación",
          "SkinCare"
        ],
        "Foto": "https://i.imgur.com/466CgJl.jpg",
        "URL Store": "https://agenddo.com/d-unas-las-canitas",
        "Barrio": "Palermo",
        "Fecha": "26 de nov"
      }
    },
    {
      "type": "Feature",
      "geometry": {
        "type": "Point",
        "coordinates": [
          -58.4896996,
          -34.4830422
        ]
      },
      "properties": {
        "Nombre": "d-uñas - Martínez",
        "Rubro": [
          "Uñas",
          "EyeBeauty"
        ],
        "Foto": "https://i.imgur.com/466CgJl.jpg",
        "URL Store": "https://agenddo.com/d-unas-Martínez",
        "Barrio": "Martínez",
        "Fecha": "26 de nov"
      }
    },
    {
      "type": "Feature",
      "geometry": {
        "type": "Point",
        "coordinates": [
          -58.6524757,
          -34.4008097
        ]
      },
      "properties": {
        "Nombre": "d-uñas - Nordelta",
        "Rubro": [
          "Uñas",
          "EyeBeauty",
          "Depilación"
        ],
        "Foto": "https://i.imgur.com/466CgJl.jpg",
        "URL Store": "https://agenddo.com/d-unas-nordelta",
        "Barrio": "Nordelta",
        "Fecha": "26 de nov"
      }
    },
    {
      "type": "Feature",
      "geometry": {
        "type": "Point",
        "coordinates": [
          -58.4926897,
          -34.5066853
        ]
      },
      "properties": {
        "Nombre": "d-uñas - Olivos",
        "Rubro": [
          "Uñas",
          "EyeBeauty",
          "SkinCare",
          "Estética Corporal"
        ],
        "Foto": "https://i.imgur.com/466CgJl.jpg",
        "URL Store": "https://agenddo.com/d-unas-olivos",
        "Barrio": "Olivos",
        "Fecha": "26 de nov"
      }
    },
    {
      "type": "Feature",
      "geometry": {
        "type": "Point",
        "coordinates": [
          -58.6922995,
          -34.6271305
        ]
      },
      "properties": {
        "Nombre": "d-uñas - Parque Leloir",
        "Rubro": [
          "Uñas",
          "EyeBeauty",
          "SkinCare",
          "Estética Corporal"
        ],
        "Foto": "https://i.imgur.com/466CgJl.jpg",
        "URL Store": "https://agenddo.com/d-unas-parque-leloir",
        "Barrio": "Ituzaingó",
        "Fecha": "26 de nov"
      }
    },
    {
      "type": "Feature",
      "geometry": {
        "type": "Point",
        "coordinates": [
          -58.6120808,
          -34.4270376
        ]
      },
      "properties": {
        "Nombre": "d-uñas - Remeros",
        "Rubro": [
          "Uñas",
          "EyeBeauty"
        ],
        "Foto": "https://i.imgur.com/466CgJl.jpg",
        "URL Store": "https://agenddo.com/d-unas-remeros",
        "Barrio": "Tigre",
        "Fecha": "26 de nov"
      }
    },
    {
      "type": "Feature",
      "geometry": {
        "type": "Point",
        "coordinates": [
          -58.4959461,
          -34.6053725
        ]
      },
      "properties": {
        "Nombre": "d-uñas - Villa del Parque",
        "Rubro": [
          "Uñas",
          "EyeBeauty"
        ],
        "Foto": "https://i.imgur.com/466CgJl.jpg",
        "URL Store": "https://agenddo.com/d-unas-villa-del-parque",
        "Barrio": "Villa del Parque",
        "Fecha": "26 de nov"
      }
    },
    {
      "type": "Feature",
      "geometry": {
        "type": "Point",
        "coordinates": [
          -58.7144787,
          -34.3912372
        ]
      },
      "properties": {
        "Nombre": "d-uñas - Villa Nueva",
        "Rubro": [
          "Uñas",
          "EyeBeauty",
          "Depilación",
          "SkinCare"
        ],
        "Foto": "https://i.imgur.com/466CgJl.jpg",
        "URL Store": "https://agenddo.com/d-unas-villa-nueva",
        "Barrio": "Benavídez",
        "Fecha": "26 de nov"
      }
    },
    {
      "type": "Feature",
      "geometry": {
        "type": "Point",
        "coordinates": [
          -58.3815591,
          -34.6036844
        ]
      },
      "properties": {
        "Nombre": "d-uñas - Villa Urquiza",
        "Rubro": [
          "Uñas",
          "EyeBeauty"
        ],
        "Foto": "https://i.imgur.com/466CgJl.jpg",
        "URL Store": "https://agenddo.com/d-unas-villa-urquiza",
        "Barrio": "Villa Urquiza",
        "Fecha": "26 de nov"
      }
    },
    {
      "type": "Feature",
      "geometry": {
        "type": "Point",
        "coordinates": [
          -58.4441116,
          -34.5706309
        ]
      },
      "properties": {
        "Nombre": "Dèpilier",
        "Rubro": [
          "Medicina Estética",
          "Depilación"
        ],
        "Foto": "https://i.imgur.com/3xtm2MN.jpg",
        "URL Store": "https://agenddo.com/depilier",
        "Barrio": "Palermo",
        "Fecha": "26 de nov"
      }
    },
    {
      "type": "Feature",
      "geometry": {
        "type": "Point",
        "coordinates": [
          -58.4168822,
          -34.6186414
        ]
      },
      "properties": {
        "Nombre": "Depilife - Almagro",
        "Rubro": [
          "Depilación"
        ],
        "Foto": "https://i.imgur.com/5TXSiWU.jpg",
        "URL Store": "https://agenddo.com/depilife-almagro",
        "Barrio": "Almagro",
        "Fecha": "26 de nov"
      }
    },
    {
      "type": "Feature",
      "geometry": {
        "type": "Point",
        "coordinates": [
          -58.4527351,
          -34.5629223
        ]
      },
      "properties": {
        "Nombre": "Depilife - Belgrano",
        "Rubro": [
          "Depilación"
        ],
        "Foto": "https://i.imgur.com/5TXSiWU.jpg",
        "URL Store": "https://agenddo.com/depilife-belgrano",
        "Barrio": "Belgrano",
        "Fecha": "26 de nov"
      }
    },
    {
      "type": "Feature",
      "geometry": {
        "type": "Point",
        "coordinates": [
          -58.4089349,
          -34.5808696
        ]
      },
      "properties": {
        "Nombre": "Depilife - Botánico",
        "Rubro": [
          "Depilación"
        ],
        "Foto": "https://i.imgur.com/5TXSiWU.jpg",
        "URL Store": "https://agenddo.com/depilife-botánico",
        "Barrio": "Palermo",
        "Fecha": "26 de nov"
      }
    },
    {
      "type": "Feature",
      "geometry": {
        "type": "Point",
        "coordinates": [
          -58.4299801,
          -34.6159962
        ]
      },
      "properties": {
        "Nombre": "Depilife - Caballito",
        "Rubro": [
          "Depilación"
        ],
        "Foto": "https://i.imgur.com/5TXSiWU.jpg",
        "URL Store": "https://agenddo.com/depilife-caballito",
        "Barrio": "Caballito",
        "Fecha": "26 de nov"
      }
    },
    {
      "type": "Feature",
      "geometry": {
        "type": "Point",
        "coordinates": [
          -58.439115,
          -34.5649362
        ]
      },
      "properties": {
        "Nombre": "Depilife - Cañitas",
        "Rubro": [
          "Depilación"
        ],
        "Foto": "https://i.imgur.com/5TXSiWU.jpg",
        "URL Store": "https://agenddo.com/depilife-canitas",
        "Barrio": "Palermo",
        "Fecha": "26 de nov"
      }
    },
    {
      "type": "Feature",
      "geometry": {
        "type": "Point",
        "coordinates": [
          -58.6418523,
          -34.6482143
        ]
      },
      "properties": {
        "Nombre": "Depilife - Castelar",
        "Rubro": [
          "Depilación"
        ],
        "Foto": "https://i.imgur.com/5TXSiWU.jpg",
        "URL Store": "https://agenddo.com/depilife-castelar",
        "Barrio": "Castelar",
        "Fecha": "26 de nov"
      }
    },
    {
      "type": "Feature",
      "geometry": {
        "type": "Point",
        "coordinates": [
          -58.3826987,
          -34.6029635
        ]
      },
      "properties": {
        "Nombre": "Depilife - Centro",
        "Rubro": [
          "Depilación"
        ],
        "Foto": "https://i.imgur.com/5TXSiWU.jpg",
        "URL Store": "https://agenddo.com/depilife-centro",
        "Barrio": "San Nicolás",
        "Fecha": "26 de nov"
      }
    },
    {
      "type": "Feature",
      "geometry": {
        "type": "Point",
        "coordinates": [
          -58.3971121,
          -34.5989369
        ]
      },
      "properties": {
        "Nombre": "Depilife - Facultades",
        "Rubro": [
          "Depilación"
        ],
        "Foto": "https://i.imgur.com/5TXSiWU.jpg",
        "URL Store": "https://agenddo.com/depilife-facultades",
        "Barrio": "Recoleta",
        "Fecha": "26 de nov"
      }
    },
    {
      "type": "Feature",
      "geometry": {
        "type": "Point",
        "coordinates": [
          -58.45932,
          -34.6272212
        ]
      },
      "properties": {
        "Nombre": "Depilife - Flores",
        "Rubro": [
          "Depilación"
        ],
        "Foto": "https://i.imgur.com/5TXSiWU.jpg",
        "URL Store": "https://agenddo.com/depilife-flores",
        "Barrio": "Flores",
        "Fecha": "26 de nov"
      }
    },
    {
      "type": "Feature",
      "geometry": {
        "type": "Point",
        "coordinates": [
          -58.4017774,
          -34.7638421
        ]
      },
      "properties": {
        "Nombre": "Depilife - Lomas de Zamora",
        "Rubro": [
          "Depilación"
        ],
        "Foto": "https://i.imgur.com/5TXSiWU.jpg",
        "URL Store": "https://agenddo.com/depilife-lomas-de-zamora",
        "Barrio": "Lomas de Zamora",
        "Fecha": "26 de nov"
      }
    },
    {
      "type": "Feature",
      "geometry": {
        "type": "Point",
        "coordinates": [
          -58.4489091,
          -34.5555736
        ]
      },
      "properties": {
        "Nombre": "Depilife - Nuñez",
        "Rubro": [
          "Depilación"
        ],
        "Foto": "https://i.imgur.com/5TXSiWU.jpg",
        "URL Store": "https://agenddo.com/depilife-nunez",
        "Barrio": "Nuñez",
        "Fecha": "26 de nov"
      }
    },
    {
      "type": "Feature",
      "geometry": {
        "type": "Point",
        "coordinates": [
          -58.492758,
          -34.514581
        ]
      },
      "properties": {
        "Nombre": "Depilife - Olivos",
        "Rubro": [
          "Depilación"
        ],
        "Foto": "https://i.imgur.com/5TXSiWU.jpg",
        "URL Store": "https://agenddo.com/depilife-olivos",
        "Barrio": "Olivos",
        "Fecha": "26 de nov"
      }
    },
    {
      "type": "Feature",
      "geometry": {
        "type": "Point",
        "coordinates": [
          -58.412382,
          -34.591933
        ]
      },
      "properties": {
        "Nombre": "Depilife - Palermo",
        "Rubro": [
          "Depilación"
        ],
        "Foto": "https://i.imgur.com/5TXSiWU.jpg",
        "URL Store": "https://agenddo.com/depilife-palermo",
        "Barrio": "Palermo",
        "Fecha": "26 de nov"
      }
    },
    {
      "type": "Feature",
      "geometry": {
        "type": "Point",
        "coordinates": [
          -58.8423025,
          -34.4418414
        ]
      },
      "properties": {
        "Nombre": "Depilife - Pilar",
        "Rubro": [
          "Depilación"
        ],
        "Foto": "https://i.imgur.com/5TXSiWU.jpg",
        "URL Store": "https://agenddo.com/depilife-pilar",
        "Barrio": "La Lonja",
        "Fecha": "26 de nov"
      }
    },
    {
      "type": "Feature",
      "geometry": {
        "type": "Point",
        "coordinates": [
          -58.2549569,
          -34.7216478
        ]
      },
      "properties": {
        "Nombre": "Depilife - Quilmes",
        "Rubro": [
          "Depilación"
        ],
        "Foto": "https://i.imgur.com/5TXSiWU.jpg",
        "URL Store": "https://agenddo.com/depilife-quilmes",
        "Barrio": "Quilmes",
        "Fecha": "26 de nov"
      }
    },
    {
      "type": "Feature",
      "geometry": {
        "type": "Point",
        "coordinates": [
          -58.5639828,
          -34.6489356
        ]
      },
      "properties": {
        "Nombre": "Depilife - Ramos",
        "Rubro": [
          "Depilación"
        ],
        "Foto": "https://i.imgur.com/5TXSiWU.jpg",
        "URL Store": "https://agenddo.com/depilife-ramos",
        "Barrio": "Ramos Mejía",
        "Fecha": "26 de nov"
      }
    },
    {
      "type": "Feature",
      "geometry": {
        "type": "Point",
        "coordinates": [
          -58.3964729,
          -34.5872879
        ]
      },
      "properties": {
        "Nombre": "Depilife - Recoleta",
        "Rubro": [
          "Depilación"
        ],
        "Foto": "https://i.imgur.com/5TXSiWU.jpg",
        "URL Store": "https://agenddo.com/depilife-recoleta",
        "Barrio": "Recoleta",
        "Fecha": "26 de nov"
      }
    },
    {
      "type": "Feature",
      "geometry": {
        "type": "Point",
        "coordinates": [
          -58.5109935,
          -34.4694256
        ]
      },
      "properties": {
        "Nombre": "Depilife - San Isidro",
        "Rubro": [
          "Depilación"
        ],
        "Foto": "https://i.imgur.com/5TXSiWU.jpg",
        "URL Store": "https://agenddo.com/depilife-san-isidro",
        "Barrio": "San Isidro",
        "Fecha": "26 de nov"
      }
    },
    {
      "type": "Feature",
      "geometry": {
        "type": "Point",
        "coordinates": [
          -58.4269888,
          -34.5905637
        ]
      },
      "properties": {
        "Nombre": "Depilife - Soho",
        "Rubro": [
          "Depilación"
        ],
        "Foto": "https://i.imgur.com/5TXSiWU.jpg",
        "URL Store": "https://agenddo.com/depilife-soho",
        "Barrio": "Palermo",
        "Fecha": "26 de nov"
      }
    },
    {
      "type": "Feature",
      "geometry": {
        "type": "Point",
        "coordinates": [
          -58.4402192,
          -34.6002497
        ]
      },
      "properties": {
        "Nombre": "Depilife - Villa Crespo",
        "Rubro": [
          "Depilación"
        ],
        "Foto": "https://i.imgur.com/5TXSiWU.jpg",
        "URL Store": "https://agenddo.com/depilife-villa-crespo",
        "Barrio": "Villa Crespo",
        "Fecha": "26 de nov"
      }
    },
    {
      "type": "Feature",
      "geometry": {
        "type": "Point",
        "coordinates": [
          -58.4972137,
          -34.5986469
        ]
      },
      "properties": {
        "Nombre": "Depilife - Villa del Parque",
        "Rubro": [
          "Depilación"
        ],
        "Foto": "https://i.imgur.com/5TXSiWU.jpg",
        "URL Store": "https://agenddo.com/depilife-villa-del-parque",
        "Barrio": "Villa del Parque",
        "Fecha": "26 de nov"
      }
    },
    {
      "type": "Feature",
      "geometry": {
        "type": "Point",
        "coordinates": [
          -58.4835657,
          -34.5752873
        ]
      },
      "properties": {
        "Nombre": "Depilife - Villa Urquiza",
        "Rubro": [
          "Depilación"
        ],
        "Foto": "https://i.imgur.com/5TXSiWU.jpg",
        "URL Store": "https://agenddo.com/depilife-villa-urquiza",
        "Barrio": "Villa Urquiza",
        "Fecha": "26 de nov"
      }
    },
    {
      "type": "Feature",
      "geometry": {
        "type": "Point",
        "coordinates": [
          -58.4565994,
          -34.5631856
        ]
      },
      "properties": {
        "Nombre": "Dr Beauty - Belgrano",
        "Rubro": [
          "Medicina Estética"
        ],
        "Foto": "https://i.imgur.com/tu4eVLA.jpg",
        "URL Store": "https://agenddo.com/dr-beauty-belgrano",
        "Barrio": "Belgrano",
        "Fecha": "26 de nov"
      }
    },
    {
      "type": "Feature",
      "geometry": {
        "type": "Point",
        "coordinates": [
          -58.4323395,
          -34.625937
        ]
      },
      "properties": {
        "Nombre": "Dr Beauty - Caballito",
        "Rubro": [
          "Medicina Estética"
        ],
        "Foto": "https://i.imgur.com/tu4eVLA.jpg",
        "URL Store": "https://agenddo.com/dr-beauty-caballito",
        "Barrio": "Caballito",
        "Fecha": "26 de nov"
      }
    },
    {
      "type": "Feature",
      "geometry": {
        "type": "Point",
        "coordinates": [
          -58.5032134,
          -34.8602544
        ]
      },
      "properties": {
        "Nombre": "Dr Beauty - Canning",
        "Rubro": [
          "Medicina Estética"
        ],
        "Foto": "https://i.imgur.com/tu4eVLA.jpg",
        "URL Store": "https://agenddo.com/dr-beauty-canning",
        "Barrio": "Canning",
        "Fecha": "26 de nov"
      }
    },
    {
      "type": "Feature",
      "geometry": {
        "type": "Point",
        "coordinates": [
          -58.4924218,
          -34.5921064
        ]
      },
      "properties": {
        "Nombre": "Dr Beauty - Devoto",
        "Rubro": [
          "Medicina Estética"
        ],
        "Foto": "https://i.imgur.com/tu4eVLA.jpg",
        "URL Store": "https://agenddo.com/dr-beauty-devoto",
        "Barrio": "Devoto",
        "Fecha": "26 de nov"
      }
    },
    {
      "type": "Feature",
      "geometry": {
        "type": "Point",
        "coordinates": [
          -58.4032033,
          -34.7655363
        ]
      },
      "properties": {
        "Nombre": "Dr Beauty - Lomas de Zamora",
        "Rubro": [
          "Medicina Estética"
        ],
        "Foto": "https://i.imgur.com/tu4eVLA.jpg",
        "URL Store": "https://agenddo.com/dr-beauty-lomas-de-zamora",
        "Barrio": "Lomas de Zamora",
        "Fecha": "26 de nov"
      }
    },
    {
      "type": "Feature",
      "geometry": {
        "type": "Point",
        "coordinates": [
          -58.6520858,
          -34.4014784
        ]
      },
      "properties": {
        "Nombre": "Dr Beauty - Nordelta",
        "Rubro": [
          "Medicina Estética"
        ],
        "Foto": "https://i.imgur.com/tu4eVLA.jpg",
        "URL Store": "https://agenddo.com/dr-beauty-nordelta",
        "Barrio": "Nordelta",
        "Fecha": "26 de nov"
      }
    },
    {
      "type": "Feature",
      "geometry": {
        "type": "Point",
        "coordinates": [
          -58.4594429,
          -34.5453841
        ]
      },
      "properties": {
        "Nombre": "Dr Beauty - Nuñez",
        "Rubro": [
          "Medicina Estética"
        ],
        "Foto": "https://i.imgur.com/tu4eVLA.jpg",
        "URL Store": "https://agenddo.com/dr-beauty-nunez",
        "Barrio": "Núñez",
        "Fecha": "26 de nov"
      }
    },
    {
      "type": "Feature",
      "geometry": {
        "type": "Point",
        "coordinates": [
          -58.4807985,
          -34.5036863
        ]
      },
      "properties": {
        "Nombre": "Dr Beauty - Olivos",
        "Rubro": [
          "Medicina Estética"
        ],
        "Foto": "https://i.imgur.com/tu4eVLA.jpg",
        "URL Store": "https://agenddo.com/dr-beauty-olivos",
        "Barrio": "Olivos",
        "Fecha": "26 de nov"
      }
    },
    {
      "type": "Feature",
      "geometry": {
        "type": "Point",
        "coordinates": [
          -58.6949654,
          -34.6245091
        ]
      },
      "properties": {
        "Nombre": "Dr Beauty - Parque Leloir",
        "Rubro": [
          "Medicina Estética"
        ],
        "Foto": "https://i.imgur.com/tu4eVLA.jpg",
        "URL Store": "https://agenddo.com/dr-beauty-parque-leloir",
        "Barrio": "Ituzaingó",
        "Fecha": "26 de nov"
      }
    },
    {
      "type": "Feature",
      "geometry": {
        "type": "Point",
        "coordinates": [
          -58.8975715,
          -34.4470938
        ]
      },
      "properties": {
        "Nombre": "Dr Beauty - Pilar",
        "Rubro": [
          "Medicina Estética"
        ],
        "Foto": "https://i.imgur.com/tu4eVLA.jpg",
        "URL Store": "https://agenddo.com/dr-beauty-pilar",
        "Barrio": "Pilar",
        "Fecha": "26 de nov"
      }
    },
    {
      "type": "Feature",
      "geometry": {
        "type": "Point",
        "coordinates": [
          -58.363012,
          -34.609528
        ]
      },
      "properties": {
        "Nombre": "Dr Beauty - Puerto Madero",
        "Rubro": [
          "Medicina Estética"
        ],
        "Foto": "https://i.imgur.com/tu4eVLA.jpg",
        "URL Store": "https://agenddo.com/dr-beauty-puerto-madero",
        "Barrio": "Puerto Madero",
        "Fecha": "26 de nov"
      }
    },
    {
      "type": "Feature",
      "geometry": {
        "type": "Point",
        "coordinates": [
          -58.5642898,
          -34.6464406
        ]
      },
      "properties": {
        "Nombre": "Dr Beauty - Ramos Mejía",
        "Rubro": [
          "Medicina Estética"
        ],
        "Foto": "https://i.imgur.com/tu4eVLA.jpg",
        "URL Store": "https://agenddo.com/dr-beauty-ramos-mejia",
        "Barrio": "Ramos Mejía",
        "Fecha": "26 de nov"
      }
    },
    {
      "type": "Feature",
      "geometry": {
        "type": "Point",
        "coordinates": [
          -58.3899324,
          -34.5885257
        ]
      },
      "properties": {
        "Nombre": "Dr Beauty - Recoleta",
        "Rubro": [
          "Medicina Estética"
        ],
        "Foto": "https://i.imgur.com/tu4eVLA.jpg",
        "URL Store": "https://agenddo.com/dr-beauty-recoleta",
        "Barrio": "Recoleta",
        "Fecha": "26 de nov"
      }
    },
    {
      "type": "Feature",
      "geometry": {
        "type": "Point",
        "coordinates": [
          -58.5458373,
          -34.494542
        ]
      },
      "properties": {
        "Nombre": "Dr Beauty - San Isidro",
        "Rubro": [
          "Medicina Estética"
        ],
        "Foto": "https://i.imgur.com/tu4eVLA.jpg",
        "URL Store": "https://agenddo.com/dr-beauty-san-isidro",
        "Barrio": "San Isidro",
        "Fecha": "26 de nov"
      }
    },
    {
      "type": "Feature",
      "geometry": {
        "type": "Point",
        "coordinates": [
          -58.3895125,
          -34.600098
        ]
      },
      "properties": {
        "Nombre": "Dr Beauty - Tribunales",
        "Rubro": [
          "Medicina Estética"
        ],
        "Foto": "https://i.imgur.com/tu4eVLA.jpg",
        "URL Store": "https://agenddo.com/dr-beauty-tribunales",
        "Barrio": "Tribunales",
        "Fecha": "26 de nov"
      }
    },
    {
      "type": "Feature",
      "geometry": {
        "type": "Point",
        "coordinates": [
          -58.4367726,
          -34.6006757
        ]
      },
      "properties": {
        "Nombre": "Dr Beauty - Villa Crespo",
        "Rubro": [
          "Medicina Estética"
        ],
        "Foto": "https://i.imgur.com/tu4eVLA.jpg",
        "URL Store": "https://agenddo.com/dr-beauty-villa-crespo",
        "Barrio": "Villa Crespo",
        "Fecha": "26 de nov"
      }
    },
    {
      "type": "Feature",
      "geometry": {
        "type": "Point",
        "coordinates": [
          -58.4801025,
          -34.5663876
        ]
      },
      "properties": {
        "Nombre": "Dr Beauty - Villa Urquiza",
        "Rubro": [
          "Medicina Estética"
        ],
        "Foto": "https://i.imgur.com/tu4eVLA.jpg",
        "URL Store": "https://agenddo.com/dr-beauty-villa-urquiza",
        "Barrio": "Villa Urquiza",
        "Fecha": "26 de nov"
      }
    },
    {
      "type": "Feature",
      "geometry": {
        "type": "Point",
        "coordinates": [
          -58.4257849,
          -34.5802867
        ]
      },
      "properties": {
        "Nombre": "Estética BE ",
        "Rubro": [
          "Estética Corporal",
          "SkinCare"
        ],
        "Foto": "https://i.imgur.com/AceVzQF.jpg",
        "URL Store": "https://agenddo.com/estetica-be",
        "Barrio": "Palermo",
        "Fecha": "26 de nov"
      }
    },
    {
      "type": "Feature",
      "geometry": {
        "type": "Point",
        "coordinates": [
          -58.4330084,
          -34.6160456
        ]
      },
      "properties": {
        "Nombre": "Estética Bella Vita - Caballito",
        "Rubro": [
          "Medicina Estética"
        ],
        "Foto": "https://i.imgur.com/yp0zImq.jpg",
        "URL Store": "https://agenddo.com/estetica-bella-vita-caballito",
        "Barrio": "Caballito",
        "Fecha": "26 de nov"
      }
    },
    {
      "type": "Feature",
      "geometry": {
        "type": "Point",
        "coordinates": [
          -58.4842788,
          -34.5786926
        ]
      },
      "properties": {
        "Nombre": "Estética Bella Vita - Villa Urquiza",
        "Rubro": [
          "Medicina Estética"
        ],
        "Foto": "https://i.imgur.com/yp0zImq.jpg",
        "URL Store": "https://agenddo.com/estetica-bella-vita-villa-urquiza",
        "Barrio": "Villa Urquiza",
        "Fecha": "26 de nov"
      }
    },
    {
      "type": "Feature",
      "geometry": {
        "type": "Point",
        "coordinates": [
          -58.4623595,
          -34.5569114
        ]
      },
      "properties": {
        "Nombre": "Estética Bella Vita Belgrano",
        "Rubro": [
          "Medicina Estética"
        ],
        "Foto": "https://i.imgur.com/yp0zImq.jpg",
        "URL Store": "https://agenddo.com/estetica-bella-vita-belgrano",
        "Barrio": "Belgrano",
        "Fecha": "26 de nov"
      }
    },
    {
      "type": "Feature",
      "geometry": {
        "type": "Point",
        "coordinates": [
          -58.4210487,
          -34.5836834
        ]
      },
      "properties": {
        "Nombre": "Estética Bella Vita Palermo",
        "Rubro": [
          "Medicina Estética"
        ],
        "Foto": "https://i.imgur.com/yp0zImq.jpg",
        "URL Store": "https://agenddo.com/estetica-bella-vita-palermo",
        "Barrio": "Palermo",
        "Fecha": "26 de nov"
      }
    },
    {
      "type": "Feature",
      "geometry": {
        "type": "Point",
        "coordinates": [
          -58.4314923,
          -34.6200485
        ]
      },
      "properties": {
        "Nombre": "Estética Martínez - Caballito",
        "Rubro": [
          "Medicina Estética",
          "SkinCare",
          "Estética Corporal"
        ],
        "Foto": "https://i.imgur.com/EQyJ6iL.jpg",
        "URL Store": "https://agenddo.com/estetica-Martínez-caballito",
        "Barrio": "Caballito",
        "Fecha": "26 de nov"
      }
    },
    {
      "type": "Feature",
      "geometry": {
        "type": "Point",
        "coordinates": [
          -58.4332759,
          -34.5772964
        ]
      },
      "properties": {
        "Nombre": "Estética Viso ",
        "Rubro": [
          "SkinCare",
          "Estética Corporal",
          "Masajes"
        ],
        "Foto": "https://i.imgur.com/E6d8bP9.jpg",
        "URL Store": "https://agenddo.com/estetica-viso",
        "Barrio": "Palermo",
        "Fecha": "26 de nov"
      }
    },
    {
      "type": "Feature",
      "geometry": {
        "type": "Point",
        "coordinates": [
          -58.4466365,
          -34.6042849
        ]
      },
      "properties": {
        "Nombre": "Estética y Masajes Bambú",
        "Rubro": [
          "SkinCare",
          "Estética Corporal",
          "Masajes"
        ],
        "Foto": "https://i.imgur.com/LLrzF3K.jpg",
        "URL Store": "https://agenddo.com/estetica-y-masajes-bambu",
        "Barrio": "Villa Crespo",
        "Fecha": "26 de nov"
      }
    },
    {
      "type": "Feature",
      "geometry": {
        "type": "Point",
        "coordinates": [
          -58.4292811,
          -34.576802
        ]
      },
      "properties": {
        "Nombre": "Estudio Laurette",
        "Rubro": [
          "Uñas",
          "EyeBeauty"
        ],
        "Foto": "https://i.imgur.com/QeVZrke.jpg",
        "URL Store": "https://agenddo.com/estudio-laurette",
        "Barrio": "Palermo",
        "Fecha": "26 de nov"
      }
    },
    {
      "type": "Feature",
      "geometry": {
        "type": "Point",
        "coordinates": [
          -58.4085837,
          -34.5825088
        ]
      },
      "properties": {
        "Nombre": "Frida Estética Femenina",
        "Rubro": [
          "Uñas",
          "EyeBeauty",
          "Depilación"
        ],
        "Foto": "https://i.imgur.com/sxdPw99.jpg",
        "URL Store": "https://agenddo.com/frida-estetica-femenina",
        "Barrio": "Palermo",
        "Fecha": "26 de nov"
      }
    },
    {
      "type": "Feature",
      "geometry": {
        "type": "Point",
        "coordinates": [
          -58.4402579,
          -34.6227128
        ]
      },
      "properties": {
        "Nombre": "Gallito & Cia - Peluqueria Infantil - Caballito",
        "Rubro": [
          "Peluquería"
        ],
        "Foto": "https://i.imgur.com/Np60LqS.jpg",
        "URL Store": "https://agenddo.com/gallito-&-cia-peluqueria-infantil-caballito",
        "Barrio": "Caballito",
        "Fecha": "26 de nov"
      }
    },
    {
      "type": "Feature",
      "geometry": {
        "type": "Point",
        "coordinates": [
          -58.4346407,
          -34.5806306
        ]
      },
      "properties": {
        "Nombre": "Gallito & Cia - Peluqueria Infantil - Palermo",
        "Rubro": [
          "Peluquería"
        ],
        "Foto": "https://i.imgur.com/Np60LqS.jpg",
        "URL Store": "https://agenddo.com/gallito-&-cia-peluqueria-infantil-palermo",
        "Barrio": "Palermo",
        "Fecha": "26 de nov"
      }
    },
    {
      "type": "Feature",
      "geometry": {
        "type": "Point",
        "coordinates": [
          -58.461854,
          -34.5557897
        ]
      },
      "properties": {
        "Nombre": "GEA ESTÉTICA Y SALUD",
        "Rubro": [
          "Estética Corporal"
        ],
        "Foto": "https://i.imgur.com/rjQeBDu.jpg",
        "URL Store": "https://agenddo.com/gea-estetica-y-salud",
        "Barrio": "Belgrano",
        "Fecha": "26 de nov"
      }
    },
    {
      "type": "Feature",
      "geometry": {
        "type": "Point",
        "coordinates": [
          -58.4296772,
          -34.5999381
        ]
      },
      "properties": {
        "Nombre": "Gella Nails",
        "Rubro": [
          "Uñas"
        ],
        "Foto": "https://i.imgur.com/G6rXJNV.jpg",
        "URL Store": "https://agenddo.com/gella-nails",
        "Barrio": "Almagro",
        "Fecha": "26 de nov"
      }
    },
    {
      "type": "Feature",
      "geometry": {
        "type": "Point",
        "coordinates": [
          -58.4409205,
          -34.5976338
        ]
      },
      "properties": {
        "Nombre": "Gloria Rueda Estética",
        "Rubro": [
          "Estética Corporal",
          "Depilación"
        ],
        "Foto": "https://i.imgur.com/4dJk7xf.jpg",
        "URL Store": "https://agenddo.com/gloria-rueda-estetica",
        "Barrio": "Villa Crespo",
        "Fecha": "26 de nov"
      }
    },
    {
      "type": "Feature",
      "geometry": {
        "type": "Point",
        "coordinates": [
          -58.44089,
          -34.5639456
        ]
      },
      "properties": {
        "Nombre": "Glow Peluqueria - Cañitas",
        "Rubro": [
          "Peluquería"
        ],
        "Foto": "https://i.imgur.com/C0EyMW7.jpg",
        "URL Store": "https://agenddo.com/glow-peluqueria-canitas",
        "Barrio": "Palermo",
        "Fecha": "26 de nov"
      }
    },
    {
      "type": "Feature",
      "geometry": {
        "type": "Point",
        "coordinates": [
          -58.4809124,
          -34.5771072
        ]
      },
      "properties": {
        "Nombre": "Glow Peluqueria - Juramento",
        "Rubro": [
          "Peluquería"
        ],
        "Foto": "https://i.imgur.com/C0EyMW7.jpg",
        "URL Store": "https://agenddo.com/glow-peluqueria-juramento",
        "Barrio": "Villa Urquiza",
        "Fecha": "26 de nov"
      }
    },
    {
      "type": "Feature",
      "geometry": {
        "type": "Point",
        "coordinates": [
          -58.8247818,
          -34.4388812
        ]
      },
      "properties": {
        "Nombre": "Go Nails - Lonja",
        "Rubro": [
          "Uñas"
        ],
        "Foto": "https://i.imgur.com/8IV1Q8P.jpg",
        "URL Store": "https://agenddo.com/go-nails-lonja",
        "Barrio": "La Lonja",
        "Fecha": "26 de nov"
      }
    },
    {
      "type": "Feature",
      "geometry": {
        "type": "Point",
        "coordinates": [
          -58.5249248,
          -34.505927
        ]
      },
      "properties": {
        "Nombre": "Go Nails - Martínez",
        "Rubro": [
          "Uñas"
        ],
        "Foto": "https://i.imgur.com/8IV1Q8P.jpg",
        "URL Store": "https://agenddo.com/go-nails-Martínez",
        "Barrio": "Martínez",
        "Fecha": "26 de nov"
      }
    },
    {
      "type": "Feature",
      "geometry": {
        "type": "Point",
        "coordinates": [
          -58.7296288,
          -34.4537287
        ]
      },
      "properties": {
        "Nombre": "Go Nails - Pilar",
        "Rubro": [
          "Uñas"
        ],
        "Foto": "https://i.imgur.com/8IV1Q8P.jpg",
        "URL Store": "https://agenddo.com/go-nails-pilar",
        "Barrio": "Pilar",
        "Fecha": "26 de nov"
      }
    },
    {
      "type": "Feature",
      "geometry": {
        "type": "Point",
        "coordinates": [
          -58.4186065,
          -34.5912322
        ]
      },
      "properties": {
        "Nombre": "Grismi Peluquería",
        "Rubro": [
          "Peluquería",
          "Uñas",
          "MakeUp"
        ],
        "Foto": "https://i.imgur.com/E8mMISD.jpg",
        "URL Store": "https://agenddo.com/grismi-peluqueria",
        "Barrio": "Palermo",
        "Fecha": "26 de nov"
      }
    },
    {
      "type": "Feature",
      "geometry": {
        "type": "Point",
        "coordinates": [
          -58.4191127,
          -34.5873681
        ]
      },
      "properties": {
        "Nombre": "Hair Experience Peluquería",
        "Rubro": [
          "Peluquería",
          "EyeBeauty",
          "Uñas"
        ],
        "Foto": "https://i.imgur.com/jGIVsRK.jpg",
        "URL Store": "https://agenddo.com/hair-experience-peluqueria",
        "Barrio": "Palermo",
        "Fecha": "26 de nov"
      }
    },
    {
      "type": "Feature",
      "geometry": {
        "type": "Point",
        "coordinates": [
          -58.4348862,
          -34.568322
        ]
      },
      "properties": {
        "Nombre": "Hawai Solarium",
        "Rubro": [
          "Bronceado"
        ],
        "Foto": "https://i.imgur.com/iKgYovq.jpg",
        "URL Store": "https://agenddo.com/hawai-solarium",
        "Barrio": "Palermo",
        "Fecha": "26 de nov"
      }
    },
    {
      "type": "Feature",
      "geometry": {
        "type": "Point",
        "coordinates": [
          -58.4024806,
          -34.5923115
        ]
      },
      "properties": {
        "Nombre": "ÍOBELLA - Barrio Norte",
        "Rubro": [
          "Medicina Estética",
          "Depilación",
          "Masajes"
        ],
        "Foto": "https://i.imgur.com/8oDMevA.jpg",
        "URL Store": "https://agenddo.com/iobella-barrio-norte",
        "Barrio": "Recoleta",
        "Fecha": "26 de nov"
      }
    },
    {
      "type": "Feature",
      "geometry": {
        "type": "Point",
        "coordinates": [
          -58.4525725,
          -34.5637565
        ]
      },
      "properties": {
        "Nombre": "ÍOBELLA - Belgrano",
        "Rubro": [
          "Medicina Estética",
          "Depilación",
          "Masajes"
        ],
        "Foto": "https://i.imgur.com/8oDMevA.jpg",
        "URL Store": "https://agenddo.com/iobella-belgrano",
        "Barrio": "Belgrano",
        "Fecha": "26 de nov"
      }
    },
    {
      "type": "Feature",
      "geometry": {
        "type": "Point",
        "coordinates": [
          -58.4165459,
          -34.5882928
        ]
      },
      "properties": {
        "Nombre": "ÍOBELLA - Palermo",
        "Rubro": [
          "Medicina Estética",
          "Depilación",
          "Masajes"
        ],
        "Foto": "https://i.imgur.com/8oDMevA.jpg",
        "URL Store": "https://agenddo.com/iobella-palermo",
        "Barrio": "Palermo",
        "Fecha": "26 de nov"
      }
    },
    {
      "type": "Feature",
      "geometry": {
        "type": "Point",
        "coordinates": [
          -58.387007,
          -34.596523
        ]
      },
      "properties": {
        "Nombre": "ÍOBELLA - Recoleta",
        "Rubro": [
          "Medicina Estética",
          "Depilación",
          "Masajes"
        ],
        "Foto": "https://i.imgur.com/8oDMevA.jpg",
        "URL Store": "https://agenddo.com/iobella-recoleta",
        "Barrio": "Recoleta",
        "Fecha": "26 de nov"
      }
    },
    {
      "type": "Feature",
      "geometry": {
        "type": "Point",
        "coordinates": [
          -58.4158311,
          -34.5864724
        ]
      },
      "properties": {
        "Nombre": "Jessicaleo Peluquerías",
        "Rubro": [
          "Peluquería"
        ],
        "Foto": "https://i.imgur.com/wofNM0Z.jpg",
        "URL Store": "https://agenddo.com/jessicaleo-peluquerias",
        "Barrio": "Palermo",
        "Fecha": "26 de nov"
      }
    },
    {
      "type": "Feature",
      "geometry": {
        "type": "Point",
        "coordinates": [
          -58.4338254,
          -34.5883425
        ]
      },
      "properties": {
        "Nombre": "JOSHA peluquería",
        "Rubro": [
          "Peluquería"
        ],
        "Foto": "https://i.imgur.com/mNQdVJC.jpg",
        "URL Store": "https://agenddo.com/josha-peluqueria",
        "Barrio": "Palermo",
        "Fecha": "26 de nov"
      }
    },
    {
      "type": "Feature",
      "geometry": {
        "type": "Point",
        "coordinates": [
          -58.3815591,
          -34.6036844
        ]
      },
      "properties": {
        "Nombre": "Juicy Make Up",
        "Rubro": [
          "MakeUp"
        ],
        "Foto": "https://i.imgur.com/XkA5K3n.jpg",
        "URL Store": "https://agenddo.com/juicy-make-up",
        "Barrio": "Villa Crespo",
        "Fecha": "26 de nov"
      }
    },
    {
      "type": "Feature",
      "geometry": {
        "type": "Point",
        "coordinates": [
          -58.4166893,
          -34.5858915
        ]
      },
      "properties": {
        "Nombre": "Julieta Beauty Studio",
        "Rubro": [
          "SkinCare",
          "Masajes",
          "EyeBeauty",
          "MakeUp"
        ],
        "Foto": "https://i.imgur.com/aeUt9iP.jpg",
        "URL Store": "https://agenddo.com/julieta-beauty-studio",
        "Barrio": "Palermo",
        "Fecha": "26 de nov"
      }
    },
    {
      "type": "Feature",
      "geometry": {
        "type": "Point",
        "coordinates": [
          -58.4369014,
          -34.601283
        ]
      },
      "properties": {
        "Nombre": "Julio Pan",
        "Rubro": [
          "Peluquería"
        ],
        "Foto": "https://i.imgur.com/bkfmZ6U.jpg",
        "URL Store": "https://agenddo.com/julio-pan",
        "Barrio": "Villa Crespo",
        "Fecha": "26 de nov"
      }
    },
    {
      "type": "Feature",
      "geometry": {
        "type": "Point",
        "coordinates": [
          -58.4320244,
          -34.5912456
        ]
      },
      "properties": {
        "Nombre": "La Maison Belleza",
        "Rubro": [
          "Estética Corporal"
        ],
        "Foto": "https://i.imgur.com/x0FtWPl.jpg",
        "URL Store": "https://agenddo.com/la-maison-belleza",
        "Barrio": "Palermo",
        "Fecha": "26 de nov"
      }
    },
    {
      "type": "Feature",
      "geometry": {
        "type": "Point",
        "coordinates": [
          -58.4550149,
          -34.570593
        ]
      },
      "properties": {
        "Nombre": "Leo Usach Hair & Makeup Lab",
        "Rubro": [
          "Peluquería"
        ],
        "Foto": "https://i.imgur.com/UUpf69c.jpg",
        "URL Store": "https://agenddo.com/leo-usach-hair-&-makeup-lab",
        "Barrio": "Colegiales",
        "Fecha": "26 de nov"
      }
    },
    {
      "type": "Feature",
      "geometry": {
        "type": "Point",
        "coordinates": [
          -58.437149,
          -34.61736
        ]
      },
      "properties": {
        "Nombre": "LLONGUERAS ARGENTINA - Acoyte",
        "Rubro": [
          "Peluquería",
          "Uñas",
          "EyeBeauty"
        ],
        "Foto": "https://i.imgur.com/GH4NnE4.jpg",
        "URL Store": "https://agenddo.com/llongueras-argentina-acoyte",
        "Barrio": "Caballito",
        "Fecha": "26 de nov"
      }
    },
    {
      "type": "Feature",
      "geometry": {
        "type": "Point",
        "coordinates": [
          -58.387876,
          -34.595604
        ]
      },
      "properties": {
        "Nombre": "LLONGUERAS ARGENTINA - Av. Santa Fe",
        "Rubro": [
          "Peluquería",
          "Uñas",
          "EyeBeauty"
        ],
        "Foto": "https://i.imgur.com/GH4NnE4.jpg",
        "URL Store": "https://agenddo.com/llongueras-argentina-av.-santa-fe",
        "Barrio": "Recoleta",
        "Fecha": "26 de nov"
      }
    },
    {
      "type": "Feature",
      "geometry": {
        "type": "Point",
        "coordinates": [
          -58.4601283,
          -34.5761109
        ]
      },
      "properties": {
        "Nombre": "LLONGUERAS ARGENTINA - Elcano",
        "Rubro": [
          "Peluquería",
          "Uñas",
          "EyeBeauty"
        ],
        "Foto": "https://i.imgur.com/GH4NnE4.jpg",
        "URL Store": "https://agenddo.com/llongueras-argentina-elcano",
        "Barrio": "Colegiales",
        "Fecha": "26 de nov"
      }
    },
    {
      "type": "Feature",
      "geometry": {
        "type": "Point",
        "coordinates": [
          -58.3936255,
          -34.5935694
        ]
      },
      "properties": {
        "Nombre": "LLONGUERAS ARGENTINA - Juncal",
        "Rubro": [
          "Peluquería",
          "Uñas",
          "EyeBeauty"
        ],
        "Foto": "https://i.imgur.com/GH4NnE4.jpg",
        "URL Store": "https://agenddo.com/llongueras-argentina-juncal",
        "Barrio": "Recoleta",
        "Fecha": "26 de nov"
      }
    },
    {
      "type": "Feature",
      "geometry": {
        "type": "Point",
        "coordinates": [
          -58.4435391,
          -34.6266725
        ]
      },
      "properties": {
        "Nombre": "LLONGUERAS ARGENTINA - Pedro Goyena",
        "Rubro": [
          "Peluquería",
          "Uñas",
          "EyeBeauty"
        ],
        "Foto": "https://i.imgur.com/GH4NnE4.jpg",
        "URL Store": "https://agenddo.com/llongueras-argentina-pedro-goyena",
        "Barrio": "Caballito",
        "Fecha": "26 de nov"
      }
    },
    {
      "type": "Feature",
      "geometry": {
        "type": "Point",
        "coordinates": [
          -58.4303218,
          -34.5713329
        ]
      },
      "properties": {
        "Nombre": "Loly Peluquería & Estética",
        "Rubro": [
          "Peluquería",
          "Uñas",
          "MakeUp"
        ],
        "Foto": "https://i.imgur.com/Qe6jxjy.jpg",
        "URL Store": "https://agenddo.com/loly-peluqueria-&-estetica",
        "Barrio": "Palermo",
        "Fecha": "26 de nov"
      }
    },
    {
      "type": "Feature",
      "geometry": {
        "type": "Point",
        "coordinates": [
          -58.4322035,
          -34.571427
        ]
      },
      "properties": {
        "Nombre": "Luxury Bronze",
        "Rubro": [
          "Bronceado"
        ],
        "Foto": "https://i.imgur.com/Mao3MLE.jpg",
        "URL Store": "https://agenddo.com/luxury-bronze-canitas",
        "Barrio": "Palermo",
        "Fecha": "26 de nov"
      }
    },
    {
      "type": "Feature",
      "geometry": {
        "type": "Point",
        "coordinates": [
          -58.398725,
          -34.5955159
        ]
      },
      "properties": {
        "Nombre": "M Studio",
        "Rubro": [
          "Peluquería"
        ],
        "Foto": "https://i.imgur.com/yYRvAsN.jpg",
        "URL Store": "https://agenddo.com/m-studio",
        "Barrio": "Recoleta",
        "Fecha": "26 de nov"
      }
    },
    {
      "type": "Feature",
      "geometry": {
        "type": "Point",
        "coordinates": [
          -58.4334946,
          -34.5877428
        ]
      },
      "properties": {
        "Nombre": "Maidana Peluqueria",
        "Rubro": [
          "Peluquería"
        ],
        "Foto": "https://i.imgur.com/7RKmO4y.jpg",
        "URL Store": "https://agenddo.com/maidana-peluqueria",
        "Barrio": "Palermo",
        "Fecha": "26 de nov"
      }
    },
    {
      "type": "Feature",
      "geometry": {
        "type": "Point",
        "coordinates": [
          -58.4149952,
          -34.5956906
        ]
      },
      "properties": {
        "Nombre": "MALA Peluquería",
        "Rubro": [
          "Peluquería",
          "Uñas"
        ],
        "Foto": "https://i.imgur.com/EjXiJiC.jpg",
        "URL Store": "https://agenddo.com/mala-peluqueria",
        "Barrio": "Palermo",
        "Fecha": "26 de nov"
      }
    },
    {
      "type": "Feature",
      "geometry": {
        "type": "Point",
        "coordinates": [
          -58.3815591,
          -34.6036844
        ]
      },
      "properties": {
        "Nombre": "Marquesa Spa de Belleza",
        "Rubro": [
          "Uñas",
          "SkinCare",
          "Masajes"
        ],
        "Foto": "https://i.imgur.com/BvcxuNY.jpg",
        "URL Store": "https://agenddo.com/marquesa-spa-de-belleza",
        "Barrio": "Palermo",
        "Fecha": "26 de nov"
      }
    },
    {
      "type": "Feature",
      "geometry": {
        "type": "Point",
        "coordinates": [
          -58.3815591,
          -34.6036844
        ]
      },
      "properties": {
        "Nombre": "Mas Plena",
        "Rubro": [
          "Estética Corporal"
        ],
        "Foto": "https://i.imgur.com/jlrlRzd.jpg",
        "URL Store": "https://agenddo.com/mas-plena",
        "Barrio": "Villa Crespo",
        "Fecha": "26 de nov"
      }
    },
    {
      "type": "Feature",
      "geometry": {
        "type": "Point",
        "coordinates": [
          -58.414421,
          -34.589771
        ]
      },
      "properties": {
        "Nombre": "Matias Rivara Peluqueria",
        "Rubro": [
          "Peluquería"
        ],
        "Foto": "https://i.imgur.com/8nI4lel.jpg",
        "URL Store": "https://agenddo.com/matias-rivara-peluqueria",
        "Barrio": "Palermo",
        "Fecha": "26 de nov"
      }
    },
    {
      "type": "Feature",
      "geometry": {
        "type": "Point",
        "coordinates": [
          -58.4223924,
          -34.5894989
        ]
      },
      "properties": {
        "Nombre": "Miguel Ramirez Peluqueria",
        "Rubro": [
          "Peluquería",
          "Uñas",
          "EyeBeauty"
        ],
        "Foto": "https://i.imgur.com/Z9mYTMm.jpg",
        "URL Store": "https://agenddo.com/miguel-ramirez-peluqueria",
        "Barrio": "Palermo",
        "Fecha": "26 de nov"
      }
    },
    {
      "type": "Feature",
      "geometry": {
        "type": "Point",
        "coordinates": [
          -58.4263642,
          -34.5834347
        ]
      },
      "properties": {
        "Nombre": "Milena Marin Beauty Studio",
        "Rubro": [
          "EyeBeauty",
          "Uñas",
          "Peluquería"
        ],
        "Foto": "https://i.imgur.com/bzucemR.jpg",
        "URL Store": "https://agenddo.com/milena-marin-beauty-studio",
        "Barrio": "Palermo",
        "Fecha": "26 de nov"
      }
    },
    {
      "type": "Feature",
      "geometry": {
        "type": "Point",
        "coordinates": [
          -58.4552986,
          -34.6051684
        ]
      },
      "properties": {
        "Nombre": "MISI Centro de Estética",
        "Rubro": [
          "Estética Corporal"
        ],
        "Foto": "https://i.imgur.com/ZMqAoi6.jpg",
        "URL Store": "https://agenddo.com/misi-centro-de-estetica",
        "Barrio": "Villa Crespo",
        "Fecha": "26 de nov"
      }
    },
    {
      "type": "Feature",
      "geometry": {
        "type": "Point",
        "coordinates": [
          -58.4341191,
          -34.5996641
        ]
      },
      "properties": {
        "Nombre": "Nancy Bonito Estética Integral",
        "Rubro": [
          "SkinCare",
          "Estética Corporal"
        ],
        "Foto": "https://i.imgur.com/m06GKwx.jpg",
        "URL Store": "https://agenddo.com/nancy-bonito-estetica-integral",
        "Barrio": "Villa Crespo",
        "Fecha": "26 de nov"
      }
    },
    {
      "type": "Feature",
      "geometry": {
        "type": "Point",
        "coordinates": [
          -58.4572796,
          -34.5597862
        ]
      },
      "properties": {
        "Nombre": "Natural Bronze - Belgrano",
        "Rubro": [
          "Bronceado"
        ],
        "Foto": "https://i.imgur.com/3pk0MKO.jpg",
        "URL Store": "https://agenddo.com/natural-bronze-belgrano",
        "Barrio": "Belgrano",
        "Fecha": "26 de nov"
      }
    },
    {
      "type": "Feature",
      "geometry": {
        "type": "Point",
        "coordinates": [
          -58.4419817,
          -34.620575
        ]
      },
      "properties": {
        "Nombre": "Natural Bronze - Caballito",
        "Rubro": [
          "Bronceado"
        ],
        "Foto": "https://i.imgur.com/3pk0MKO.jpg",
        "URL Store": "https://agenddo.com/natural-bronze-caballito",
        "Barrio": "Caballito",
        "Fecha": "26 de nov"
      }
    },
    {
      "type": "Feature",
      "geometry": {
        "type": "Point",
        "coordinates": [
          -58.4925973,
          -34.8691086
        ]
      },
      "properties": {
        "Nombre": "Natural Bronze - Canning",
        "Rubro": [
          "Bronceado"
        ],
        "Foto": "https://i.imgur.com/3pk0MKO.jpg",
        "URL Store": "https://agenddo.com/natural-bronze-canning",
        "Barrio": "Canning",
        "Fecha": "26 de nov"
      }
    },
    {
      "type": "Feature",
      "geometry": {
        "type": "Point",
        "coordinates": [
          -58.4020201,
          -34.7650545
        ]
      },
      "properties": {
        "Nombre": "Natural Bronze - Las Lomitas",
        "Rubro": [
          "Bronceado"
        ],
        "Foto": "https://i.imgur.com/3pk0MKO.jpg",
        "URL Store": "https://agenddo.com/natural-bronze-las-lomitas",
        "Barrio": "Lomas de Zamora",
        "Fecha": "26 de nov"
      }
    },
    {
      "type": "Feature",
      "geometry": {
        "type": "Point",
        "coordinates": [
          -58.6527664,
          -34.4008443
        ]
      },
      "properties": {
        "Nombre": "Natural Bronze - Nordelta",
        "Rubro": [
          "Bronceado"
        ],
        "Foto": "https://i.imgur.com/3pk0MKO.jpg",
        "URL Store": "https://agenddo.com/natural-bronze-nordelta",
        "Barrio": "Nordelta",
        "Fecha": "26 de nov"
      }
    },
    {
      "type": "Feature",
      "geometry": {
        "type": "Point",
        "coordinates": [
          -58.4618177,
          -34.5431323
        ]
      },
      "properties": {
        "Nombre": "Natural Bronze - Nuñez",
        "Rubro": [
          "Bronceado"
        ],
        "Foto": "https://i.imgur.com/3pk0MKO.jpg",
        "URL Store": "https://agenddo.com/natural-bronze-nunez",
        "Barrio": "Nuñez",
        "Fecha": "26 de nov"
      }
    },
    {
      "type": "Feature",
      "geometry": {
        "type": "Point",
        "coordinates": [
          -58.4792702,
          -34.5077523
        ]
      },
      "properties": {
        "Nombre": "Natural Bronze - Olivos",
        "Rubro": [
          "Bronceado"
        ],
        "Foto": "https://i.imgur.com/3pk0MKO.jpg",
        "URL Store": "https://agenddo.com/natural-bronze-olivos",
        "Barrio": "Olivos",
        "Fecha": "26 de nov"
      }
    },
    {
      "type": "Feature",
      "geometry": {
        "type": "Point",
        "coordinates": [
          -58.4260078,
          -34.5847907
        ]
      },
      "properties": {
        "Nombre": "Natural Bronze - Palermo",
        "Rubro": [
          "Bronceado"
        ],
        "Foto": "https://i.imgur.com/3pk0MKO.jpg",
        "URL Store": "https://agenddo.com/natural-bronze-palermo",
        "Barrio": "Palermo",
        "Fecha": "26 de nov"
      }
    },
    {
      "type": "Feature",
      "geometry": {
        "type": "Point",
        "coordinates": [
          -58.8049735,
          -34.4380196
        ]
      },
      "properties": {
        "Nombre": "Natural Bronze - Pilar",
        "Rubro": [
          "Bronceado"
        ],
        "Foto": "https://i.imgur.com/3pk0MKO.jpg",
        "URL Store": "https://agenddo.com/natural-bronze-pilar",
        "Barrio": "Pilar",
        "Fecha": "26 de nov"
      }
    },
    {
      "type": "Feature",
      "geometry": {
        "type": "Point",
        "coordinates": [
          -58.5633649,
          -34.6437897
        ]
      },
      "properties": {
        "Nombre": "Natural Bronze - Ramos Mejía",
        "Rubro": [
          "Bronceado"
        ],
        "Foto": "https://i.imgur.com/3pk0MKO.jpg",
        "URL Store": "https://agenddo.com/natural-bronze-ramos-mejia",
        "Barrio": "Ramos Mejía",
        "Fecha": "26 de nov"
      }
    },
    {
      "type": "Feature",
      "geometry": {
        "type": "Point",
        "coordinates": [
          -58.3931305,
          -34.5956893
        ]
      },
      "properties": {
        "Nombre": "Natural Bronze - Recoleta",
        "Rubro": [
          "Bronceado"
        ],
        "Foto": "https://i.imgur.com/3pk0MKO.jpg",
        "URL Store": "https://agenddo.com/natural-bronze-recoleta",
        "Barrio": "Recoleta",
        "Fecha": "26 de nov"
      }
    },
    {
      "type": "Feature",
      "geometry": {
        "type": "Point",
        "coordinates": [
          -58.5120436,
          -34.4686756
        ]
      },
      "properties": {
        "Nombre": "Natural Bronze - San Isidro",
        "Rubro": [
          "Bronceado"
        ],
        "Foto": "https://i.imgur.com/3pk0MKO.jpg",
        "URL Store": "https://agenddo.com/natural-bronze-san-isidro",
        "Barrio": "San Isidro",
        "Fecha": "26 de nov"
      }
    },
    {
      "type": "Feature",
      "geometry": {
        "type": "Point",
        "coordinates": [
          -58.4829611,
          -34.5751452
        ]
      },
      "properties": {
        "Nombre": "Natural Bronze - Urquiza",
        "Rubro": [
          "Bronceado"
        ],
        "Foto": "https://i.imgur.com/3pk0MKO.jpg",
        "URL Store": "https://agenddo.com/natural-bronze-urquiza",
        "Barrio": "Villa Urquiza",
        "Fecha": "26 de nov"
      }
    },
    {
      "type": "Feature",
      "geometry": {
        "type": "Point",
        "coordinates": [
          -58.4389523,
          -34.5846064
        ]
      },
      "properties": {
        "Nombre": "New Life Dermoestética",
        "Rubro": [
          "Depilación",
          "Estética Corporal"
        ],
        "Foto": "https://i.imgur.com/FwH6P3k.jpg",
        "URL Store": "https://agenddo.com/new-life-dermoestetica",
        "Barrio": "Palermo",
        "Fecha": "26 de nov"
      }
    },
    {
      "type": "Feature",
      "geometry": {
        "type": "Point",
        "coordinates": [
          -58.4537673,
          -34.5592758
        ]
      },
      "properties": {
        "Nombre": "New Studio Belgrano",
        "Rubro": [
          "Peluquería",
          "Uñas",
          "Depilación",
          "Barbería",
          "EyeBeauty",
          "Masajes",
          "MakeUp"
        ],
        "Foto": "https://i.imgur.com/4HyDX2a.jpg",
        "URL Store": "https://agenddo.com/new-studio-belgrano",
        "Barrio": "Belgrano",
        "Fecha": "26 de nov"
      }
    },
    {
      "type": "Feature",
      "geometry": {
        "type": "Point",
        "coordinates": [
          -58.4292942,
          -34.6151627
        ]
      },
      "properties": {
        "Nombre": "Nifty - Almagro",
        "Rubro": [
          "Uñas",
          "EyeBeauty"
        ],
        "Foto": "https://i.imgur.com/j2bmalN.jpg",
        "URL Store": "https://agenddo.com/nifty-almagro",
        "Barrio": "Almagro",
        "Fecha": "26 de nov"
      }
    },
    {
      "type": "Feature",
      "geometry": {
        "type": "Point",
        "coordinates": [
          -58.4159837,
          -34.6099575
        ]
      },
      "properties": {
        "Nombre": "Nifty - Almagro II",
        "Rubro": [
          "Uñas",
          "EyeBeauty"
        ],
        "Foto": "https://i.imgur.com/j2bmalN.jpg",
        "URL Store": "https://agenddo.com/nifty-almagro-ii",
        "Barrio": "Almagro",
        "Fecha": "26 de nov"
      }
    },
    {
      "type": "Feature",
      "geometry": {
        "type": "Point",
        "coordinates": [
          -58.4614666,
          -34.5649516
        ]
      },
      "properties": {
        "Nombre": "Nifty - Belgrano 1",
        "Rubro": [
          "Uñas",
          "EyeBeauty"
        ],
        "Foto": "https://i.imgur.com/j2bmalN.jpg",
        "URL Store": "https://agenddo.com/nifty-belgrano-1",
        "Barrio": "Belgrano",
        "Fecha": "26 de nov"
      }
    },
    {
      "type": "Feature",
      "geometry": {
        "type": "Point",
        "coordinates": [
          -58.4561754,
          -34.5544449
        ]
      },
      "properties": {
        "Nombre": "Nifty - Belgrano 2",
        "Rubro": [
          "Uñas",
          "EyeBeauty"
        ],
        "Foto": "https://i.imgur.com/j2bmalN.jpg",
        "URL Store": "https://agenddo.com/nifty-belgrano-2",
        "Barrio": "Belgrano",
        "Fecha": "26 de nov"
      }
    },
    {
      "type": "Feature",
      "geometry": {
        "type": "Point",
        "coordinates": [
          -58.6554567,
          -34.6386711
        ]
      },
      "properties": {
        "Nombre": "Nifty - Castelar",
        "Rubro": [
          "Uñas",
          "EyeBeauty"
        ],
        "Foto": "https://i.imgur.com/j2bmalN.jpg",
        "URL Store": "https://agenddo.com/nifty-castelar",
        "Barrio": "Castelar",
        "Fecha": "26 de nov"
      }
    },
    {
      "type": "Feature",
      "geometry": {
        "type": "Point",
        "coordinates": [
          -58.4524869,
          -34.5825581
        ]
      },
      "properties": {
        "Nombre": "Nifty - Chacarita",
        "Rubro": [
          "Uñas",
          "EyeBeauty"
        ],
        "Foto": "https://i.imgur.com/j2bmalN.jpg",
        "URL Store": "https://agenddo.com/nifty-chacarita",
        "Barrio": "Chacarita",
        "Fecha": "26 de nov"
      }
    },
    {
      "type": "Feature",
      "geometry": {
        "type": "Point",
        "coordinates": [
          -58.459444,
          -34.5727889
        ]
      },
      "properties": {
        "Nombre": "Nifty - Colegiales",
        "Rubro": [
          "Uñas",
          "EyeBeauty"
        ],
        "Foto": "https://i.imgur.com/j2bmalN.jpg",
        "URL Store": "https://agenddo.com/nifty-colegiales",
        "Barrio": "Colegiales",
        "Fecha": "26 de nov"
      }
    },
    {
      "type": "Feature",
      "geometry": {
        "type": "Point",
        "coordinates": [
          -58.401969,
          -34.7643004
        ]
      },
      "properties": {
        "Nombre": "Nifty - Lomas de Zamora",
        "Rubro": [
          "Uñas",
          "EyeBeauty"
        ],
        "Foto": "https://i.imgur.com/j2bmalN.jpg",
        "URL Store": "https://agenddo.com/nifty-lomas-de-zamora",
        "Barrio": "Lomas de Zamora",
        "Fecha": "26 de nov"
      }
    },
    {
      "type": "Feature",
      "geometry": {
        "type": "Point",
        "coordinates": [
          -58.474943,
          -34.581364
        ]
      },
      "properties": {
        "Nombre": "Nifty - Los Incas",
        "Rubro": [
          "Uñas",
          "EyeBeauty"
        ],
        "Foto": "https://i.imgur.com/j2bmalN.jpg",
        "URL Store": "https://agenddo.com/nifty-los-incas",
        "Barrio": "Parque Chas",
        "Fecha": "26 de nov"
      }
    },
    {
      "type": "Feature",
      "geometry": {
        "type": "Point",
        "coordinates": [
          -58.499254,
          -34.4880025
        ]
      },
      "properties": {
        "Nombre": "Nifty - Martínez",
        "Rubro": [
          "Uñas",
          "EyeBeauty"
        ],
        "Foto": "https://i.imgur.com/j2bmalN.jpg",
        "URL Store": "https://agenddo.com/nifty-Martínez",
        "Barrio": "Martínez",
        "Fecha": "26 de nov"
      }
    },
    {
      "type": "Feature",
      "geometry": {
        "type": "Point",
        "coordinates": [
          -58.4193421,
          -34.5850764
        ]
      },
      "properties": {
        "Nombre": "Nifty - Palermo",
        "Rubro": [
          "Uñas",
          "EyeBeauty"
        ],
        "Foto": "https://i.imgur.com/j2bmalN.jpg",
        "URL Store": "https://agenddo.com/nifty-palermo",
        "Barrio": "Palermo",
        "Fecha": "26 de nov"
      }
    },
    {
      "type": "Feature",
      "geometry": {
        "type": "Point",
        "coordinates": [
          -58.2613236,
          -34.7185885
        ]
      },
      "properties": {
        "Nombre": "Nifty - Quilmes",
        "Rubro": [
          "Uñas",
          "EyeBeauty"
        ],
        "Foto": "https://i.imgur.com/j2bmalN.jpg",
        "URL Store": "https://agenddo.com/nifty-quilmes",
        "Barrio": "Quilmes",
        "Fecha": "26 de nov"
      }
    },
    {
      "type": "Feature",
      "geometry": {
        "type": "Point",
        "coordinates": [
          -58.3957291,
          -34.5899414
        ]
      },
      "properties": {
        "Nombre": "Nifty - Recoleta",
        "Rubro": [
          "Uñas",
          "EyeBeauty"
        ],
        "Foto": "https://i.imgur.com/j2bmalN.jpg",
        "URL Store": "https://agenddo.com/nifty-recoleta",
        "Barrio": "Recoleta",
        "Fecha": "26 de nov"
      }
    },
    {
      "type": "Feature",
      "geometry": {
        "type": "Point",
        "coordinates": [
          -58.5082868,
          -34.4707732
        ]
      },
      "properties": {
        "Nombre": "Nifty - San Isidro",
        "Rubro": [
          "Uñas",
          "EyeBeauty"
        ],
        "Foto": "https://i.imgur.com/j2bmalN.jpg",
        "URL Store": "https://agenddo.com/nifty-san-isidro",
        "Barrio": "San Isidro",
        "Fecha": "26 de nov"
      }
    },
    {
      "type": "Feature",
      "geometry": {
        "type": "Point",
        "coordinates": [
          -58.4391144,
          -34.5986895
        ]
      },
      "properties": {
        "Nombre": "Nifty - Villa Crespo",
        "Rubro": [
          "Uñas",
          "EyeBeauty"
        ],
        "Foto": "https://i.imgur.com/j2bmalN.jpg",
        "URL Store": "https://agenddo.com/nifty-villa-crespo",
        "Barrio": "Villa Crespo",
        "Fecha": "26 de nov"
      }
    },
    {
      "type": "Feature",
      "geometry": {
        "type": "Point",
        "coordinates": [
          -58.488439,
          -34.6034057
        ]
      },
      "properties": {
        "Nombre": "Nifty - Villa del Parque",
        "Rubro": [
          "Uñas",
          "EyeBeauty"
        ],
        "Foto": "https://i.imgur.com/j2bmalN.jpg",
        "URL Store": "https://agenddo.com/nifty-villa-del-parque",
        "Barrio": "Villa del Parque",
        "Fecha": "26 de nov"
      }
    },
    {
      "type": "Feature",
      "geometry": {
        "type": "Point",
        "coordinates": [
          -58.5033487,
          -34.6002407
        ]
      },
      "properties": {
        "Nombre": "Nifty - Villa Devoto",
        "Rubro": [
          "Uñas",
          "EyeBeauty"
        ],
        "Foto": "https://i.imgur.com/j2bmalN.jpg",
        "URL Store": "https://agenddo.com/nifty-villa-devoto",
        "Barrio": "Devoto",
        "Fecha": "26 de nov"
      }
    },
    {
      "type": "Feature",
      "geometry": {
        "type": "Point",
        "coordinates": [
          -58.4544578,
          -34.5674491
        ]
      },
      "properties": {
        "Nombre": "Nuevo Módulo 2",
        "Rubro": [
          "Peluquería",
          "Uñas",
          "SkinCare"
        ],
        "Foto": "https://i.imgur.com/pnL3CMr.jpg",
        "URL Store": "https://agenddo.com/nuevo-modulo-2",
        "Barrio": "Belgrano",
        "Fecha": "26 de nov"
      }
    },
    {
      "type": "Feature",
      "geometry": {
        "type": "Point",
        "coordinates": [
          -58.422006,
          -34.5826511
        ]
      },
      "properties": {
        "Nombre": "Only Esthetic",
        "Rubro": [
          "Estética Corporal"
        ],
        "Foto": "https://i.imgur.com/RGV9NEl.jpg",
        "URL Store": "https://agenddo.com/only-esthetic",
        "Barrio": "Palermo",
        "Fecha": "26 de nov"
      }
    },
    {
      "type": "Feature",
      "geometry": {
        "type": "Point",
        "coordinates": [
          -58.4100005,
          -34.589287
        ]
      },
      "properties": {
        "Nombre": "Palermo Medicina Estética",
        "Rubro": [
          "Medicina Estética"
        ],
        "Foto": "https://i.imgur.com/9iwXeCC.jpg",
        "URL Store": "https://agenddo.com/palermo-medicina-estetica",
        "Barrio": "Palermo",
        "Fecha": "26 de nov"
      }
    },
    {
      "type": "Feature",
      "geometry": {
        "type": "Point",
        "coordinates": [
          -58.4351488,
          -34.5828586
        ]
      },
      "properties": {
        "Nombre": "Pelo’s House",
        "Rubro": [
          "Peluquería"
        ],
        "Foto": "https://i.imgur.com/8kLD76s.jpg",
        "URL Store": "https://agenddo.com/pelo’s-house",
        "Barrio": "Palermo",
        "Fecha": "26 de nov"
      }
    },
    {
      "type": "Feature",
      "geometry": {
        "type": "Point",
        "coordinates": [
          -58.4377306,
          -34.5834542
        ]
      },
      "properties": {
        "Nombre": "Peluquería Filo",
        "Rubro": [
          "Peluquería",
          "Uñas",
          "Barbería"
        ],
        "Foto": "https://i.imgur.com/ykntjWf.jpg",
        "URL Store": "https://agenddo.com/peluqueria-filo",
        "Barrio": "Palermo",
        "Fecha": "26 de nov"
      }
    },
    {
      "type": "Feature",
      "geometry": {
        "type": "Point",
        "coordinates": [
          -58.4528419,
          -34.5829409
        ]
      },
      "properties": {
        "Nombre": "Peluquería Il Figaro",
        "Rubro": [
          "Peluquería",
          "Barbería"
        ],
        "Foto": "https://i.imgur.com/wbA5CuE.jpg",
        "URL Store": "https://agenddo.com/peluqueria-il-figaro",
        "Barrio": "Chacarita",
        "Fecha": "26 de nov"
      }
    },
    {
      "type": "Feature",
      "geometry": {
        "type": "Point",
        "coordinates": [
          -58.4594581,
          -34.560122
        ]
      },
      "properties": {
        "Nombre": "Peluquería y Barbería Montesco",
        "Rubro": [
          "Barbería",
          "Peluquería"
        ],
        "Foto": "https://i.imgur.com/9HhXInH.jpg",
        "URL Store": "https://agenddo.com/peluqueria-y-barberia-montesco",
        "Barrio": "Belgrano",
        "Fecha": "26 de nov"
      }
    },
    {
      "type": "Feature",
      "geometry": {
        "type": "Point",
        "coordinates": [
          -58.4206827,
          -34.6030381
        ]
      },
      "properties": {
        "Nombre": "Penny Nail",
        "Rubro": [
          "Uñas"
        ],
        "Foto": "https://i.imgur.com/kYWbFPB.jpg",
        "URL Store": "https://agenddo.com/penny-nail",
        "Barrio": "Villa Crespo",
        "Fecha": "26 de nov"
      }
    },
    {
      "type": "Feature",
      "geometry": {
        "type": "Point",
        "coordinates": [
          -58.4601034,
          -34.5656962
        ]
      },
      "properties": {
        "Nombre": "Prana Peluquería De Diseño - Crámer",
        "Rubro": [
          "Peluquería"
        ],
        "Foto": "https://i.imgur.com/9UcBPbR.jpg",
        "URL Store": "https://agenddo.com/prana-peluqueria-de-diseno-cramer",
        "Barrio": "Belgrano",
        "Fecha": "26 de nov"
      }
    },
    {
      "type": "Feature",
      "geometry": {
        "type": "Point",
        "coordinates": [
          -58.4189185,
          -34.5891022
        ]
      },
      "properties": {
        "Nombre": "Prana Peluquería De Diseño - Palermo",
        "Rubro": [
          "Peluquería"
        ],
        "Foto": "https://i.imgur.com/9UcBPbR.jpg",
        "URL Store": "https://agenddo.com/prana-peluqueria-de-diseno-palermo",
        "Barrio": "Palermo",
        "Fecha": "26 de nov"
      }
    },
    {
      "type": "Feature",
      "geometry": {
        "type": "Point",
        "coordinates": [
          -58.4396787,
          -34.5770735
        ]
      },
      "properties": {
        "Nombre": "Puro Glamour",
        "Rubro": [
          "Peluquería"
        ],
        "Foto": "https://i.imgur.com/J3V9rCw.jpg",
        "URL Store": "https://agenddo.com/puro-glamour",
        "Barrio": "Palermo",
        "Fecha": "26 de nov"
      }
    },
    {
      "type": "Feature",
      "geometry": {
        "type": "Point",
        "coordinates": [
          -58.4300033,
          -34.5944893
        ]
      },
      "properties": {
        "Nombre": "Quiero Mis Cejas",
        "Rubro": [
          "EyeBeauty"
        ],
        "Foto": "https://i.imgur.com/RUwHIbl.jpg",
        "URL Store": "https://agenddo.com/quiero-mis-cejas",
        "Barrio": "Palermo",
        "Fecha": "26 de nov"
      }
    },
    {
      "type": "Feature",
      "geometry": {
        "type": "Point",
        "coordinates": [
          -58.4304982,
          -34.6171287
        ]
      },
      "properties": {
        "Nombre": "Roho Hair Boutique - Caballito",
        "Rubro": [
          "Peluquería"
        ],
        "Foto": "https://i.imgur.com/fQAcA3w.jpg",
        "URL Store": "https://agenddo.com/roho-hair-boutique-caballito",
        "Barrio": "Caballito",
        "Fecha": "26 de nov"
      }
    },
    {
      "type": "Feature",
      "geometry": {
        "type": "Point",
        "coordinates": [
          -58.442893,
          -34.5787433
        ]
      },
      "properties": {
        "Nombre": "Roho Hair Boutique - Palermo",
        "Rubro": [
          "Peluquería"
        ],
        "Foto": "https://i.imgur.com/fQAcA3w.jpg",
        "URL Store": "https://agenddo.com/roho-hair-boutique-palermo",
        "Barrio": "Palermo",
        "Fecha": "26 de nov"
      }
    },
    {
      "type": "Feature",
      "geometry": {
        "type": "Point",
        "coordinates": [
          -58.432667,
          -34.582187
        ]
      },
      "properties": {
        "Nombre": "Rústica Peluquería Barbería",
        "Rubro": [
          "Peluquería",
          "Barbería"
        ],
        "Foto": "https://i.imgur.com/bMFmwgc.jpg",
        "URL Store": "https://agenddo.com/rustica-peluqueria-barberia",
        "Barrio": "Palermo",
        "Fecha": "26 de nov"
      }
    },
    {
      "type": "Feature",
      "geometry": {
        "type": "Point",
        "coordinates": [
          -58.4612317,
          -34.5589608
        ]
      },
      "properties": {
        "Nombre": "Sakura Beauty Salon",
        "Rubro": [
          "Cejas",
          "Pestañas"
        ],
        "Foto": "https://i.imgur.com/UEWCXsU.jpg",
        "URL Store": "https://agenddo.com/sakura-beauty-salon",
        "Barrio": "Belgrano",
        "Fecha": "26 de nov"
      }
    },
    {
      "type": "Feature",
      "geometry": {
        "type": "Point",
        "coordinates": [
          -58.4120526,
          -34.5911013
        ]
      },
      "properties": {
        "Nombre": "Salón de Belleza Omar Silvero",
        "Rubro": [
          "Peluquería"
        ],
        "Foto": "https://i.imgur.com/bPIEKCd.jpg",
        "URL Store": "https://agenddo.com/salon-de-belleza-omar-silvero",
        "Barrio": "Palermo",
        "Fecha": "26 de nov"
      }
    },
    {
      "type": "Feature",
      "geometry": {
        "type": "Point",
        "coordinates": [
          -58.3945124,
          -34.5894785
        ]
      },
      "properties": {
        "Nombre": "Sanders",
        "Rubro": [
          "Peluquería"
        ],
        "Foto": "https://i.imgur.com/CFJIwVK.jpg",
        "URL Store": "https://agenddo.com/sanders",
        "Barrio": "Recoleta",
        "Fecha": "26 de nov"
      }
    },
    {
      "type": "Feature",
      "geometry": {
        "type": "Point",
        "coordinates": [
          -58.4501816,
          -34.5789325
        ]
      },
      "properties": {
        "Nombre": "Santino - Colegiales",
        "Rubro": [
          "Peluquería",
          "Uñas",
          "Depilación"
        ],
        "Foto": "https://i.imgur.com/zUjP8hz.jpg",
        "URL Store": "https://agenddo.com/santino-colegiales",
        "Barrio": "Colegiales",
        "Fecha": "26 de nov"
      }
    },
    {
      "type": "Feature",
      "geometry": {
        "type": "Point",
        "coordinates": [
          -58.4285624,
          -34.5776525
        ]
      },
      "properties": {
        "Nombre": "Santino - Palermo",
        "Rubro": [
          "Peluquería",
          "Uñas",
          "Depilación"
        ],
        "Foto": "https://i.imgur.com/zUjP8hz.jpg",
        "URL Store": "https://agenddo.com/santino-palermo",
        "Barrio": "Palermo",
        "Fecha": "26 de nov"
      }
    },
    {
      "type": "Feature",
      "geometry": {
        "type": "Point",
        "coordinates": [
          -58.4602672,
          -34.5768076
        ]
      },
      "properties": {
        "Nombre": "Sarkirian",
        "Rubro": [
          "Peluquería",
          "Uñas"
        ],
        "Foto": "https://i.imgur.com/uiEA8SB.jpg",
        "URL Store": "https://agenddo.com/sarkirian",
        "Barrio": "Colegiales",
        "Fecha": "26 de nov"
      }
    },
    {
      "type": "Feature",
      "geometry": {
        "type": "Point",
        "coordinates": [
          -58.4172373,
          -34.589766
        ]
      },
      "properties": {
        "Nombre": "Sensoria Estética & Spa ",
        "Rubro": [
          "SkinCare",
          "Estética Corporal",
          "Depilación",
          "Uñas"
        ],
        "Foto": "https://i.imgur.com/Z4BZRJn.jpg",
        "URL Store": "https://agenddo.com/sensoria-estetica-&-spa",
        "Barrio": "Palermo",
        "Fecha": "26 de nov"
      }
    },
    {
      "type": "Feature",
      "geometry": {
        "type": "Point",
        "coordinates": [
          -58.460337,
          -34.5741062
        ]
      },
      "properties": {
        "Nombre": "sergio.delriocanosa",
        "Rubro": [
          "Peluquería"
        ],
        "Foto": "https://i.imgur.com/ePooscE.jpg",
        "URL Store": "https://agenddo.com/sergio-delriocanosa",
        "Barrio": "Colegiales",
        "Fecha": "26 de nov"
      }
    },
    {
      "type": "Feature",
      "geometry": {
        "type": "Point",
        "coordinates": [
          -58.4503234,
          -34.5501163
        ]
      },
      "properties": {
        "Nombre": "Shining - Belleza Saludable",
        "Rubro": [
          "SkinCare",
          "Estética Corporal"
        ],
        "Foto": "https://i.imgur.com/hHx1980.jpg",
        "URL Store": "https://agenddo.com/shining-belleza-saludable",
        "Barrio": "Belgrano",
        "Fecha": "26 de nov"
      }
    },
    {
      "type": "Feature",
      "geometry": {
        "type": "Point",
        "coordinates": [
          -58.4492923,
          -34.5753487
        ]
      },
      "properties": {
        "Nombre": "Soylashista",
        "Rubro": [
          "Uñas",
          "Depilación",
          "SkinCare",
          "Estética Corporal",
          "EyeBeauty"
        ],
        "Foto": "https://i.imgur.com/az47UXD.jpg",
        "URL Store": "https://agenddo.com/soylashista",
        "Barrio": "Colegiales",
        "Fecha": "26 de nov"
      }
    },
    {
      "type": "Feature",
      "geometry": {
        "type": "Point",
        "coordinates": [
          -58.4392999,
          -34.5987922
        ]
      },
      "properties": {
        "Nombre": "Spa & Estética CL",
        "Rubro": [
          "Masajes",
          "SkinCare",
          "Estética Corporal"
        ],
        "Foto": "https://i.imgur.com/Ey4b80b.jpg",
        "URL Store": "https://agenddo.com/spa-&-estetica-cl",
        "Barrio": "Villa Crespo",
        "Fecha": "26 de nov"
      }
    },
    {
      "type": "Feature",
      "geometry": {
        "type": "Point",
        "coordinates": [
          -58.4579835,
          -34.6039561
        ]
      },
      "properties": {
        "Nombre": "Spa Beauty Kd Angel's",
        "Rubro": [
          "Uñas",
          "EyeBeauty",
          "Depilación",
          "SkinCare"
        ],
        "Foto": "https://i.imgur.com/6aQdzt0.jpg",
        "URL Store": "https://agenddo.com/spa-beauty-kd-angel's",
        "Barrio": "Villa Crespo",
        "Fecha": "26 de nov"
      }
    },
    {
      "type": "Feature",
      "geometry": {
        "type": "Point",
        "coordinates": [
          -58.4461186,
          -34.5753339
        ]
      },
      "properties": {
        "Nombre": "Studio AngieP",
        "Rubro": [
          "Uñas",
          "EyeBeauty"
        ],
        "Foto": "https://i.imgur.com/atceV0k.jpg",
        "URL Store": "https://agenddo.com/studio-angiep",
        "Barrio": "Colegiales",
        "Fecha": "26 de nov"
      }
    },
    {
      "type": "Feature",
      "geometry": {
        "type": "Point",
        "coordinates": [
          -58.4533751,
          -34.6140272
        ]
      },
      "properties": {
        "Nombre": "Tan & Go",
        "Rubro": [
          "Bronceado"
        ],
        "Foto": "https://i.imgur.com/IzW34tX.jpg",
        "URL Store": "https://agenddo.com/tan-&-go",
        "Barrio": "Caballito",
        "Fecha": "26 de nov"
      }
    },
    {
      "type": "Feature",
      "geometry": {
        "type": "Point",
        "coordinates": [
          -58.4639943,
          -34.5544721
        ]
      },
      "properties": {
        "Nombre": "Tara Glamour",
        "Rubro": [
          "EyeBeauty"
        ],
        "Foto": "https://i.imgur.com/1ddow6H.jpg",
        "URL Store": "https://agenddo.com/tara-glamour",
        "Barrio": "Núñez",
        "Fecha": "26 de nov"
      }
    },
    {
      "type": "Feature",
      "geometry": {
        "type": "Point",
        "coordinates": [
          -58.3878396,
          -34.5972835
        ]
      },
      "properties": {
        "Nombre": "The Barber Job - Barrio Norte",
        "Rubro": [
          "Peluquería",
          "Barbería"
        ],
        "Foto": "https://i.imgur.com/w3K9ATd.jpg",
        "URL Store": "https://agenddo.com/the-barber-job-barrio-norte",
        "Barrio": "Recoleta",
        "Fecha": "26 de nov"
      }
    },
    {
      "type": "Feature",
      "geometry": {
        "type": "Point",
        "coordinates": [
          -58.458205,
          -34.5716332
        ]
      },
      "properties": {
        "Nombre": "The Barber Job - Belgrano",
        "Rubro": [
          "Peluquería",
          "Barbería"
        ],
        "Foto": "https://i.imgur.com/w3K9ATd.jpg",
        "URL Store": "https://agenddo.com/the-barber-job-belgrano",
        "Barrio": "Belgrano",
        "Fecha": "26 de nov"
      }
    },
    {
      "type": "Feature",
      "geometry": {
        "type": "Point",
        "coordinates": [
          -58.4290956,
          -34.6255402
        ]
      },
      "properties": {
        "Nombre": "The Barber Job - Caballito",
        "Rubro": [
          "Peluquería",
          "Barbería"
        ],
        "Foto": "https://i.imgur.com/w3K9ATd.jpg",
        "URL Store": "https://agenddo.com/the-barber-job-caballito",
        "Barrio": "Caballito",
        "Fecha": "26 de nov"
      }
    },
    {
      "type": "Feature",
      "geometry": {
        "type": "Point",
        "coordinates": [
          -58.4539104,
          -34.6290182
        ]
      },
      "properties": {
        "Nombre": "The Barber Job - Flores",
        "Rubro": [
          "Peluquería",
          "Barbería"
        ],
        "Foto": "https://i.imgur.com/w3K9ATd.jpg",
        "URL Store": "https://agenddo.com/the-barber-job-flores",
        "Barrio": "Flores",
        "Fecha": "26 de nov"
      }
    },
    {
      "type": "Feature",
      "geometry": {
        "type": "Point",
        "coordinates": [
          -58.430521,
          -34.5726811
        ]
      },
      "properties": {
        "Nombre": "The Barber Job - Las Cañitas",
        "Rubro": [
          "Peluquería",
          "Barbería"
        ],
        "Foto": "https://i.imgur.com/w3K9ATd.jpg",
        "URL Store": "https://agenddo.com/the-barber-job-las-canitas",
        "Barrio": "Palermo",
        "Fecha": "26 de nov"
      }
    },
    {
      "type": "Feature",
      "geometry": {
        "type": "Point",
        "coordinates": [
          -58.4004306,
          -34.7569141
        ]
      },
      "properties": {
        "Nombre": "The Barber Job - Lomas Estación",
        "Rubro": [
          "Peluquería",
          "Barbería"
        ],
        "Foto": "https://i.imgur.com/w3K9ATd.jpg",
        "URL Store": "https://agenddo.com/the-barber-job-lomas-estación",
        "Barrio": "Lomas de Zamora",
        "Fecha": "26 de nov"
      }
    },
    {
      "type": "Feature",
      "geometry": {
        "type": "Point",
        "coordinates": [
          -58.4021765,
          -34.7640349
        ]
      },
      "properties": {
        "Nombre": "The Barber Job - Lomitas",
        "Rubro": [
          "Peluquería",
          "Barbería"
        ],
        "Foto": "https://i.imgur.com/w3K9ATd.jpg",
        "URL Store": "https://agenddo.com/the-barber-job-lomitas",
        "Barrio": "Lomas de Zamora",
        "Fecha": "26 de nov"
      }
    },
    {
      "type": "Feature",
      "geometry": {
        "type": "Point",
        "coordinates": [
          -58.3733715,
          -34.6030592
        ]
      },